h3,max_p,mean_p,expected_hi_hours,fc_dow,fc_hour,fc_p,fc_dow_name,risk_tier,tier,lat,lon,location_name,top_violation,total_impact,capacity_loss_pct,near_junction,peak_dow,peak_hour
8a6014586d27fff,0.9315272100672982,0.2422728636905317,40.701841100009325,6,8,0.9315272100672982,Sunday,Medium,CRITICAL,12.997873568235525,77.547401782275,"Padmabhushan Dr MC Modi Road, Phase 1, Manjunatha Nagar, Rajaji Nagar, Bengaluru, Karnataka. Pin-560010 (India)",WRONG PARKING,929.45,53.7,1.0,Tuesday,10
8a6014586d37fff,0.8723504313899157,0.24735806421947315,41.55615478887149,4,7,0.8723504313899157,Friday,Medium,CRITICAL,12.998940221413704,77.5480210987739,"3rd Main Road, Star Circle, Rajaji Nagar, Bengaluru, Karnataka. Pin-560010 (India)",WRONG PARKING,271.0,45.6,1.0,Tuesday,4
8a6014586db7fff,0.29743835994406786,0.16640496041452232,27.95603334963975,6,11,0.29743835994406786,Sunday,Low,CRITICAL,13.002143894597776,77.54867604819795,"11th Cross Road, Dr M Munivenkataswamy Circle, Rajaji Nagar, Bengaluru, Karnataka. Pin-560010 (India)",WRONG PARKING,9.0,60.0,1.0,Thursday,7
8a60145a220ffff,0.19513073853512392,0.12031520683029695,20.21295474748989,6,11,0.19513073853512392,Sunday,Low,HIGH,12.963708022643862,77.53841233172415,"4th Cross Road, RPC Layout, Vijaya Nagar Stage 2, Bengaluru, Karnataka. Pin-560104 (India)",WRONG PARKING,2.6,35.0,1.0,Saturday,11
8a60145a221ffff,0.7480308966442498,0.2739872962129486,46.02986576377536,6,7,0.7480308966442498,Sunday,High,HIGH,12.964774580420295,77.53903148565863,"Sri Sankasta Hara Ganapati Temple Road, RPC Layout, Vijaya Nagar Stage 2, Bengaluru, Karnataka. Pin-560104 (India)",WRONG PARKING,2618.35,32.9,1.0,Saturday,11
8a60145a22c7fff,0.9216548943779413,0.28202030155294516,47.37941066089479,1,10,0.9216548943779413,Tuesday,High,CRITICAL,12.9658489119973,77.53724512164958,"Sri Sankasta Hara Ganapati Temple Road, RPC Layout, Vijaya Nagar Stage 2, Bengaluru, Karnataka. Pin-560104 (India)",WRONG PARKING,954.85,43.5,1.0,Tuesday,10
8a60145a22e7fff,0.9051449780645285,0.22786096384313093,38.280641925645995,2,2,0.9051449780645285,Wednesday,Medium,CRITICAL,12.964778472377809,77.53782872679415,"Sri Sankasta Hara Ganapati Temple Road, RPC Layout, Vijaya Nagar Stage 2, Bengaluru, Karnataka. Pin-560104 (India)",WRONG PARKING,502.25,38.1,1.0,Tuesday,10
8a60145a24dffff,0.18391499908863218,0.10937303747196496,18.374670295290112,6,9,0.18391499908863218,Sunday,Low,HIGH,12.974358324706763,77.54941590877216,"1st Cross Road, Vidyaranya Nagar, Cholurpalya, Bengaluru, Karnataka. Pin-560023 (India)",WRONG PARKING,170.0,29.6,1.0,Monday,3
8a60145a2687fff,0.8780350351614713,0.2564380962363213,43.08160016770198,0,7,0.8780350351614713,Monday,High,HIGH,12.974373790534775,77.54460425854464,"1st Cross Road, Manuvana, Vijaya Nagar, Bengaluru, Karnataka. Pin-560040 (India)",WRONG PARKING,2056.7,23.2,1.0,Wednesday,8
8a60145a2697fff,0.834477661258016,0.24207763156285983,40.669042102560454,0,10,0.834477661258016,Monday,Medium,HIGH,12.97544039054157,77.54522349858547,"1st Cross Road, Sindhya Sunshine Apartment, Vijaya Nagar, Bengaluru, Karnataka. Pin-560040 (India)",WRONG PARKING,272.5,38.0,1.0,Wednesday,9
8a60145a26a7fff,0.8457123038667635,0.24104864057653574,40.49617161685801,6,11,0.8457123038667635,Sunday,Medium,HIGH,12.973303332275302,77.54518790269701,"1st B Main Road, Manuvana, Vijaya Nagar, Bengaluru, Karnataka. Pin-560040 (India)",WRONG PARKING,327.0,45.3,1.0,Wednesday,4
8a60145a26affff,0.868151399504926,0.23472642661483856,39.43403967129288,4,13,0.868151399504926,Friday,Medium,HIGH,12.97330719474614,77.5439850271146,"3rd Cross Road, Manuvana, Vijaya Nagar, Bengaluru, Karnataka. Pin-560040 (India)",WRONG PARKING,116.0,45.6,1.0,Sunday,8
8a60145a26b7fff,0.8531270174494702,0.2818943475044806,47.35825038075274,4,10,0.8531270174494702,Friday,High,HIGH,12.974369932444365,77.5458071466811,"Chord Road, Manuvana, Vijaya Nagar, Bengaluru, Karnataka. Pin-560040 (India)",WRONG PARKING,1993.6,45.4,1.0,Wednesday,8
8a60145a279ffff,0.3144112488833924,0.18848895852180717,31.666145031663604,6,11,0.3144112488833924,Sunday,Low,CRITICAL,12.973299464227352,77.54639079456044,"2nd Cross Road, Manuvana, Vijaya Nagar, Bengaluru, Karnataka. Pin-560040 (India)",NO PARKING,35.0,45.7,1.0,Thursday,5
8a60145a2b4ffff,0.8368159354834245,0.2238013117118653,37.59862036759337,0,9,0.8368159354834245,Monday,Medium,HIGH,12.953010955457982,77.54184281828802,"Mysore Road, Iyannashetty Layout, New Timber Yard Layout, Bengaluru, Karnataka. Pin-560026 (India)",NO PARKING,697.98,28.2,1.0,Monday,9
8a60145b00dffff,0.8855833808213588,0.21898027445430876,36.78868610832387,4,11,0.8855833808213588,Friday,Low,HIGH,12.99673153917672,77.57084567210181,"5th Cross Road, Malleshwaram Circle, Malleshwaram, Bengaluru, Karnataka. Pin-560003 (India)",WRONG PARKING,305.40000000000003,44.7,0.0,Saturday,10
8a60145b0607fff,0.8087036086547006,0.25553452102373064,42.92979953198675,1,8,0.8087036086547006,Tuesday,High,CRITICAL,13.001009906965384,77.56971391430439,"Siddavanahalli Krishna Sharma Road, Kadumalleshwara, Malleshwaram, Bengaluru, Karnataka. Pin-560003 (India)",WRONG PARKING,214.1,46.8,0.0,Tuesday,7
8a60145b0627fff,0.3589122132291801,0.2429285917291299,40.81200341049382,0,11,0.3589122132291801,Monday,Medium,CRITICAL,12.99993937329685,77.57029768677292,"9th Cross Road, Malleshwaram, Bengaluru, Karnataka. Pin-560003 (India)",WRONG PARKING,43.0,42.0,0.0,Tuesday,8
8a60145b062ffff,0.8789524222912458,0.24335701272183735,40.88397813726868,3,6,0.8789524222912458,Thursday,Medium,CRITICAL,12.999943171111903,77.5690943671788,"Siddavanahalli Krishna Sharma Road, Malleshwaram, Bengaluru, Karnataka. Pin-560003 (India)",WRONG PARKING,508.2,45.8,0.0,Saturday,6
8a60145b0637fff,0.8761257070330036,0.2081833334485538,34.97480001935704,6,13,0.8761257070330036,Sunday,Low,CRITICAL,13.001006113515574,77.57091724644923,"Sri Venkataranga Ayangar Road, Acharya Sri Ramanuja Circle, Malleshwaram, Bengaluru, Karnataka. Pin-560003 (India)",WRONG PARKING,860.75,47.2,0.0,Sunday,10
8a60145b0687fff,0.19725033619492177,0.1171885415612421,19.687674982288673,6,11,0.19725033619492177,Sunday,Low,HIGH,13.004213914408991,77.5703692538205,"14th Cross Road, Malleshwara Extension, Malleshwaram West, Bengaluru, Karnataka. Pin-560055 (India)",NO PARKING,4.6,42.0,0.0,Friday,11
8a60145b0697fff,0.9087669099522363,0.2933809226131428,49.28799499900799,5,7,0.9087669099522363,Saturday,High,CRITICAL,13.005280662640835,77.5709888228406,"Sri Venkataranga Ayangar Road, Ranganathapura, Malleshwaram, Bengaluru, Karnataka. Pin-560003 (India)",WRONG PARKING,1358.4,49.5,0.0,Friday,5
8a60145b069ffff,0.9471645226561383,0.28939071329887983,48.61763983421181,1,5,0.9471645226561383,Tuesday,High,CRITICAL,13.005284427448508,77.56978547303014,"15th Cross Road, Malleshwara Extension, Malleshwaram West, Bengaluru, Karnataka. Pin-560055 (India)",NO PARKING,1045.9,50.9,0.0,Monday,7
8a60145b0707fff,0.8502920342406736,0.1643876090986742,27.617118328577266,3,8,0.8502920342406736,Thursday,Low,CRITICAL,12.99886501613326,77.57208479860039,"8th Cross Road, RR Palace, Malleshwaram, Bengaluru, Karnataka. Pin-560003 (India)",WRONG PARKING,84.2,82.2,0.0,Thursday,8
8a60145b070ffff,0.8748804294111213,0.19077389911512826,32.050015051341546,3,7,0.8748804294111213,Thursday,Low,CRITICAL,12.99886882949489,77.57088145902004,"Sri Venkataranga Ayangar Road, RR Palace, Malleshwaram, Bengaluru, Karnataka. Pin-560003 (India)",WRONG PARKING,843.4,45.2,0.0,Sunday,10
8a60145b0717fff,0.2791309951354933,0.13417723493094907,22.541775468399447,6,11,0.2791309951354933,Sunday,Low,HIGH,12.999931760894116,77.57270437476626,"1st Main Road, Yalappa Garden, Malleshwaram, Bengaluru, Karnataka. Pin-560003 (India)",WRONG PARKING,37.2,90.9,0.0,Tuesday,12
8a60145b071ffff,0.7816092980136841,0.24564853826190705,41.268954428000384,6,10,0.7816092980136841,Sunday,Medium,CRITICAL,12.999935569890994,77.57150102263566,"Sri Venkataranga Ayangar Road, RR Palace, Malleshwaram, Bengaluru, Karnataka. Pin-560003 (India)",WRONG PARKING,3148.4500000000003,47.2,0.0,Sunday,10
8a60145b0727fff,0.1966746453739901,0.11927563931266703,20.038307404528062,6,11,0.1966746453739901,Sunday,Low,HIGH,12.997794452243346,77.57266857434333,"Sri Sri Sri Balagangadharanatha Swamy Road, Sangeetha Apartment, Kadumalleshwara, Malleshwaram, Bengaluru, Karnataka. Pin-560003 (India)",WRONG PARKING,1.0,36.0,0.0,Tuesday,7
8a60145b072ffff,0.9030097300841354,0.24894844315137346,41.82333844943074,0,7,0.9030097300841354,Monday,Medium,CRITICAL,12.997798275560443,77.5714652310456,"Sri Venkataranga Ayangar Road, RR Palace, Malleshwaram, Bengaluru, Karnataka. Pin-560003 (India)",WRONG PARKING,683.5,45.5,0.0,Sunday,8
8a60145b0757fff,0.967432029902986,0.2636974721660629,44.30117532389856,0,11,0.967432029902986,Monday,High,CRITICAL,12.998872637265958,77.5696781357078,"Siddavanahalli Krishna Sharma Road, Parisara Organic Junction, Malleshwaram, Bengaluru, Karnataka. Pin-560003 (India)",WRONG PARKING,1448.35,48.1,0.0,Monday,11
8a60145b0767fff,0.7903113835577265,0.17645954892132765,29.645204218783043,1,6,0.7903113835577265,Tuesday,Low,HIGH,12.99673536126919,77.56964235762209,"5th Cross Road, Parisara Organic Junction, Malleshwaram, Bengaluru, Karnataka. Pin-560003 (India)",WRONG PARKING,121.8,45.5,0.0,Monday,11
8a60145b0777fff,0.7769214371777182,0.26169158914697266,43.96418697669141,0,11,0.7769214371777182,Monday,High,CRITICAL,12.997802093287252,77.57026190401552,"7th Cross Road, Parisara Organic Junction, Malleshwaram, Bengaluru, Karnataka. Pin-560003 (India)",WRONG PARKING,64.3,45.8,0.0,Saturday,5
8a60145b07affff,0.31945137807991536,0.18758984061657194,31.515093223584085,6,11,0.31945137807991536,Sunday,Low,HIGH,13.001002314474482,77.57212059486243,"10th Cross Road, Acharya Sri Ramanuja Circle, Malleshwaram, Bengaluru, Karnataka. Pin-560003 (India)",WRONG PARKING,14.6,40.5,0.0,Tuesday,12
8a60145b096ffff,0.25953826175919653,0.15831768590853265,26.597371232633485,6,11,0.25953826175919653,Sunday,Low,CRITICAL,12.981750635614144,77.57661168524338,"BMIC Planning Authority, Race Course Road, Madhav Nagar, High Grounds, Sampangirama Nagar, Bengaluru Central City Corporation, Bengaluru, Bangalore North, Bengaluru Urban, Karnataka, 560001, India",WRONG PARKING,9.0,40.0,1.0,Tuesday,7
8a60145b1447fff,0.9605814199545146,0.23018381763908227,38.67088136336582,5,1,0.9605814199545146,Saturday,Medium,HIGH,12.99251034153174,77.55392942506437,"P&T Road, BSNL Quarters, Block 2, Rajaji Nagar, Bengaluru, Karnataka. Pin-560010 (India)",WRONG PARKING,874.2,68.6,1.0,Friday,1
8a60145b144ffff,0.9748399352723007,0.2717461960598108,45.653360938048216,4,5,0.9748399352723007,Friday,High,HIGH,12.992514114053762,77.55272635607143,"17th Main Road, KPTCL Quarters, Block 2, Rajaji Nagar, Bengaluru, Karnataka. Pin-560010 (India)",WRONG PARKING,1607.7,71.9,1.0,Thursday,3
8a60145b1687fff,0.811674705003412,0.19422150808808705,32.62921335879862,6,8,0.811674705003412,Sunday,Low,CRITICAL,12.99679948181388,77.54918850116988,"Padmabhushan Dr MC Modi Road, Phase 1, Manjunatha Nagar, Rajaji Nagar, Bengaluru, Karnataka. Pin-560010 (India)",WRONG PARKING,40.8,53.5,1.0,Sunday,8
8a60145b168ffff,0.9254655637333234,0.20809487234684299,34.95993855426962,6,9,0.9254655637333234,Sunday,Low,CRITICAL,12.996803203327502,77.54798547963807,"Padmabhushan Dr MC Modi Road, Phase 1, Manjunatha Nagar, Rajaji Nagar, Bengaluru, Karnataka. Pin-560010 (India)",WRONG PARKING,445.3,52.0,1.0,Sunday,9
8a60145b1697fff,0.8913317285668215,0.19319597693054583,32.4569241243317,6,9,0.8913317285668215,Sunday,Low,CRITICAL,12.997866139542827,77.54980783416721,"Padmabhushan Dr MC Modi Road, Star Circle, Rajaji Nagar, Bengaluru, Karnataka. Pin-560010 (India)",WRONG PARKING,2021.75,52.4,1.0,Sunday,8
8a60145b169ffff,0.814745343892743,0.21107683470500518,35.46090823044087,6,9,0.814745343892743,Sunday,Low,CRITICAL,12.997869856682218,77.54860480008033,"Padmabhushan Dr MC Modi Road, Phase 1, Manjunatha Nagar, Rajaji Nagar, Bengaluru, Karnataka. Pin-560010 (India)",WRONG PARKING,1393.2,51.3,1.0,Sunday,9
8a60145b16b7fff,0.9115759870481083,0.2659386706660006,44.6776966718881,1,14,0.9115759870481083,Tuesday,High,CRITICAL,12.996795754714393,77.55039153898278,"Basava Mantapa Road, Star Circle, Rajaji Nagar, Bengaluru, Karnataka. Pin-560010 (India)",WRONG PARKING,241.3,60.4,1.0,Sunday,11
8a60145b1707fff,0.9076339866978526,0.24610686215402672,41.34595284187649,3,0,0.9076339866978526,Thursday,Medium,HIGH,12.991451226763347,77.55090396319997,"Sri B Gangaiah Road, Shivanahalli Junction, Rajaji Nagar, Bengaluru, Karnataka. Pin-560010 (India)",WRONG PARKING,53.5,61.9,1.0,Thursday,0
8a60145b1737fff,0.9459197731634589,0.23769487523698793,39.932739039813974,2,4,0.9459197731634589,Wednesday,Medium,HIGH,12.99144745545222,77.55210700336039,"17th Main Road, KPTCL Quarters, Block 2, Rajaji Nagar, Bengaluru, Karnataka. Pin-560010 (India)",WRONG PARKING,308.0,70.5,1.0,Wednesday,4
8a60145b1a67fff,0.8412278701135982,0.25033624402657484,42.05648899646457,2,11,0.8412278701135982,Wednesday,Medium,HIGH,12.976506994765373,77.54584274723713,"1st Cross Road, Sindhya Sunshine Apartment, Vijaya Nagar, Bengaluru, Karnataka. Pin-560040 (India)",NO PARKING,381.5,30.6,1.0,Tuesday,11
8a60145b1b4ffff,0.8065315514768171,0.19576048772899546,32.887761938471236,1,8,0.8065315514768171,Tuesday,Low,HIGH,12.975436536831117,77.54642639927592,"1st Main Road, Sindhya Sunshine Apartment, Vijaya Nagar, Bengaluru, Karnataka. Pin-560040 (India)",WRONG PARKING,14.4,47.5,1.0,Tuesday,8
8a60145b1b6ffff,0.9524946102775911,0.2525488729133499,42.428210649442775,2,4,0.9524946102775911,Wednesday,High,HIGH,12.974366068776373,77.54701005109831,"Chord Road, Sindhya Sunshine Apartment, Vijaya Nagar, Bengaluru, Karnataka. Pin-560040 (India)",WRONG PARKING,1010.02,46.8,1.0,Friday,9
8a60145b2a47fff,0.9188921857686853,0.3052732477237997,51.28590561759835,0,3,0.9188921857686853,Monday,High,CRITICAL,13.007417927733568,77.57102461180281,"Sri Venkataranga Ayangar Road, Ranganathapura, Malleshwaram, Bengaluru, Karnataka. Pin-560003 (India)",WRONG PARKING,3626.15,46.7,0.0,Sunday,9
8a60145b2a4ffff,0.1986845875086114,0.11738354383255663,19.720435363869512,6,11,0.1986845875086114,Sunday,Low,CRITICAL,13.007421678220354,77.56982125315935,"Siddavanahalli Krishna Sharma Road, Sarangapani, Malleshwaram West, Bengaluru, Karnataka. Pin-560055 (India)",WRONG PARKING,15.6,45.0,0.0,Saturday,3
8a60145b2a57fff,0.870024442513007,0.16580575332118241,27.855366557958646,1,8,0.870024442513007,Tuesday,Low,CRITICAL,13.00848468414897,77.57164419410648,"Sri Venkataranga Ayangar Road, Malleshwaram 18th Cross Junction, Malleshwaram West, Bengaluru, Karnataka. Pin-560055 (India)",WRONG PARKING,748.5,31.3,0.0,Thursday,8
8a60145b2a5ffff,0.8570787507751839,0.2350190424226791,39.48319912701009,6,9,0.8570787507751839,Sunday,Medium,CRITICAL,13.008488430272294,77.57044082291185,"18th Cross Road, Malleshwaram 18th Cross Junction, Malleshwaram West, Bengaluru, Karnataka. Pin-560055 (India)",WRONG PARKING,1662.7,95.0,0.0,Tuesday,8
8a60145b2a67fff,0.8614522452946315,0.3173393429443625,53.3130096146529,5,11,0.8614522452946315,Saturday,High,CRITICAL,13.006347415055954,77.57160840047217,"Sri Venkataranga Ayangar Road, Ranganathapura, Malleshwaram, Bengaluru, Karnataka. Pin-560003 (India)",NO PARKING,1745.6,48.8,0.0,Saturday,11
8a60145b2a6ffff,0.3549994723693459,0.2387736293004874,40.11396972248188,0,11,0.3549994723693459,Monday,Medium,CRITICAL,13.00635117549972,77.57040503811069,"16th Cross Road, Malleshwara Extension, Malleshwaram West, Bengaluru, Karnataka. Pin-560055 (India)",NO PARKING,19.2,48.0,0.0,Tuesday,7
8a60145b2aeffff,0.3649396917465096,0.24367509416364364,40.93741581949213,0,10,0.3649396917465096,Monday,Medium,CRITICAL,13.009555186505112,77.57106040127603,"Sankey Road, Gokak Chaluvali Smaranartha Circle, Malleshwaram West, Bengaluru, Karnataka. Pin-560055 (India)",NO PARKING,71.8,25.7,0.0,Sunday,3
8a60145b2b4ffff,0.3589122132291801,0.24437856156162932,41.055598342353726,0,11,0.3589122132291801,Monday,Medium,CRITICAL,13.005276892240405,77.57219218891981,"1st Temple Street, Ranganathapura, Malleshwaram, Bengaluru, Karnataka. Pin-560003 (India)",NO PARKING,7.5,42.0,0.0,Thursday,10
8a60145b3007fff,0.8051626425472461,0.2418058361593293,40.62338047476732,4,9,0.8051626425472461,Friday,Medium,CRITICAL,13.008529268490513,77.55720481371395,"GP Rajarathnam Road, Block A, Subramanya Nagar Stage 2, Rajaji Nagar, Bengaluru, Karnataka. Pin-560010 (India)",WRONG PARKING,82.4,48.5,0.0,Saturday,8
8a60145b300ffff,0.9281086005308904,0.26639366310253576,44.75413540122601,0,11,0.9281086005308904,Monday,High,CRITICAL,13.00853294750355,77.5560016378007,"GP Rajarathnam Road, Dr Rajkumar Road 17th Cross Junction, Rajaji Nagar, Bengaluru, Karnataka. Pin-560010 (India)",WRONG PARKING,844.0,53.1,1.0,Sunday,9
8a60145b302ffff,0.8099076270788439,0.26234670812090055,44.07424696431129,5,8,0.8099076270788439,Saturday,High,CRITICAL,13.007462564468494,77.55658538204172,"GP Rajarathnam Road, Block A, Subramanya Nagar Stage 2, Rajaji Nagar, Bengaluru, Karnataka. Pin-560010 (India)",WRONG PARKING,374.7,58.3,1.0,Saturday,8
8a60145b3047fff,0.8636873423024758,0.22057324867343805,37.056305777137595,5,10,0.8636873423024758,Saturday,Low,CRITICAL,13.007469925642376,77.55417907160238,"80 Feet Ring Road, Dr Rajkumar Road 17th Cross Junction, Rajaji Nagar, Bengaluru, Karnataka. Pin-560010 (India)",WRONG PARKING,141.2,62.8,1.0,Saturday,10
8a60145b3057fff,0.9084549866016642,0.35372982237941725,59.4266101597421,1,8,0.9084549866016642,Tuesday,High,CRITICAL,13.008536620925485,77.55479847816567,"80 Feet Ring Road, Dr Rajkumar Road 17th Cross Junction, Rajaji Nagar, Bengaluru, Karnataka. Pin-560010 (India)",WRONG PARKING,7450.150000000001,59.3,1.0,Wednesday,10
8a60145b305ffff,0.32605111663292896,0.19296582441708213,32.4182585020698,6,10,0.32605111663292896,Sunday,Low,CRITICAL,13.008540288756548,77.55359533480956,"80 Feet Ring Road, Dr Rajkumar Road 17th Cross Junction, Rajaji Nagar, Bengaluru, Karnataka. Pin-560010 (India)",WRONG PARKING,48.4,64.0,1.0,Monday,6
8a60145b3067fff,0.7164534782782532,0.237042667203962,39.82316809026562,2,5,0.7164534782782532,Wednesday,Medium,CRITICAL,13.006399552385412,77.55476280817713,"80 Feet Ring Road, Dr Rajkumar Road 10th Cross Junction, Rajaji Nagar, Bengaluru, Karnataka. Pin-560010 (India)",WRONG PARKING,62.4,58.0,1.0,Wednesday,5
8a60145b3077fff,0.9097827031483351,0.22968710133868667,38.58743302489936,1,8,0.9097827031483351,Tuesday,Medium,CRITICAL,13.007466247850743,77.55538221868282,"GP Rajarathnam Road, Dr Rajkumar Road 17th Cross Junction, Rajaji Nagar, Bengaluru, Karnataka. Pin-560010 (India)",WRONG PARKING,322.1,62.8,1.0,Sunday,3
8a60145b30c7fff,0.7234137952515011,0.21516282384269209,36.14735440557227,5,9,0.7234137952515011,Saturday,Low,CRITICAL,13.01067368314317,77.55483414866346,"80 Feet Ring Road, Orion, Brigade Gateway, Malleshwaram West, Bengaluru, Karnataka. Pin-560055 (India)",WRONG PARKING,2200.55,43.9,0.0,Sunday,10
8a60145b30cffff,0.32625280443191246,0.18918238603707133,31.782640854227985,6,10,0.32625280443191246,Sunday,Low,CRITICAL,13.010677336643663,77.55363099647691,"80 Feet Ring Road, Orion, Brigade Gateway, Malleshwaram West, Bengaluru, Karnataka. Pin-560055 (India)",WRONG PARKING,16.6,45.6,0.0,Sunday,9
8a60145b30d7fff,0.6972774534949988,0.23987414017277947,40.29885554902695,4,11,0.6972774534949988,Friday,Medium,CRITICAL,13.011740386614674,77.55545356850902,"Brigade Gateway Road, Orion, Brigade Gateway, Malleshwaram West, Bengaluru, Karnataka. Pin-560055 (India)",WRONG PARKING,40.1,42.0,0.0,Friday,11
8a60145b30dffff,0.8128996525993841,0.23192382147094356,38.96320200711852,2,9,0.8128996525993841,Wednesday,Medium,CRITICAL,13.011744035745878,77.5542504037675,"80 Feet Ring Road, Orion, Brigade Gateway, Malleshwaram West, Bengaluru, Karnataka. Pin-560055 (India)",WRONG PARKING,3381.3,42.6,0.0,Sunday,9
8a60145b30e7fff,0.8761127950075712,0.24654194874118218,41.41904738851861,6,6,0.8761127950075712,Sunday,Medium,CRITICAL,13.009603320395406,77.55541789334124,"Pipeline Road, Dr Rajkumar Road 17th Cross Junction, Rajaji Nagar, Bengaluru, Karnataka. Pin-560010 (India)",WRONG PARKING,69.7,36.3,0.0,Sunday,6
8a60145b30effff,0.8292326538741394,0.2662786111261509,44.734806669193354,0,4,0.8292326538741394,Monday,High,CRITICAL,13.00960698385676,77.55421473743031,"80 Feet Ring Road, Dr Rajkumar Road 17th Cross Junction, Rajaji Nagar, Bengaluru, Karnataka. Pin-560010 (India)",WRONG PARKING,1584.9,51.2,0.0,Monday,4
8a60145b30f7fff,0.3571848625931781,0.2501397741874533,42.02348206349215,0,11,0.3571848625931781,Monday,Medium,CRITICAL,13.01067002405108,77.55603731712914,"Brigade Gateway Road, Brigade Gateway Residences, Brigade Gateway, Malleshwaram West, Bengaluru, Karnataka. Pin-560055 (India)",WRONG PARKING,2.6,42.0,0.0,Friday,10
8a60145b3217fff,0.8612975366721581,0.20182286180198977,33.90624078273428,0,7,0.8612975366721581,Monday,Low,HIGH,13.00962158179322,77.54940227658793,"Da Ra Bendre Road, Block 1R, Rajaji Nagar, Bengaluru, Karnataka. Pin-560010 (India)",WRONG PARKING,506.0,98.0,1.0,Tuesday,11
8a60145b32a7fff,0.9676252127696133,0.2562200170747438,43.04496286855696,6,9,0.9676252127696133,Sunday,High,CRITICAL,13.010688263597778,77.55002163759939,"Da Ra Bendre Road, Kirloskar Foundry, Yeshwanthpur Suburb Stage 2, Yeshwanthpur, Bengaluru, Karnataka. Pin-560022 (India)",WRONG PARKING,1661.5,69.3,1.0,Tuesday,5
8a60145b32b7fff,0.920567335966272,0.21952213843074211,36.87971925636467,6,5,0.920567335966272,Sunday,Low,CRITICAL,13.011754949589266,77.55064100722345,"Da Ra Bendre Road, Kirloskar Foundry, Yeshwanthpur Suburb Stage 2, Yeshwanthpur, Bengaluru, Karnataka. Pin-560022 (India)",WRONG PARKING,769.5,32.1,1.0,Monday,8
8a60145b3387fff,0.23923695629987662,0.15421163483080744,25.907554651575648,6,11,0.23923695629987662,Sunday,Low,CRITICAL,13.009614294006337,77.5518084744474,"Unnamed Road, Phoenix Kessaku, Rajaji Nagar, Bengaluru, Karnataka. Pin-560010 (India)",NO PARKING,10.2,54.4,1.0,Friday,11
8a60145b338ffff,0.3191442157436005,0.20366934976679602,34.21645076082173,6,10,0.3191442157436005,Sunday,Low,CRITICAL,13.009617940695003,77.55060536737686,"20th B Main Road, Block 1R, Rajaji Nagar, Bengaluru, Karnataka. Pin-560010 (India)",NO PARKING,15.2,90.0,1.0,Wednesday,6
8a60145b3397fff,0.8241233818928703,0.21544733592883766,36.19515243604473,3,9,0.8241233818928703,Thursday,Low,CRITICAL,13.010680984552774,77.55242786057022,"80 Feet Ring Road, Phoenix Kessaku, Rajaji Nagar, Bengaluru, Karnataka. Pin-560010 (India)",NO PARKING,19.4,69.4,1.0,Thursday,9
8a60145b339ffff,0.2935209064760945,0.1573766974113058,26.439285165099374,6,9,0.2935209064760945,Sunday,Low,CRITICAL,13.010684626870736,77.55122474094415,"Da Ra Bendre Road, Kirloskar Foundry, Yeshwanthpur Suburb Stage 2, Yeshwanthpur, Bengaluru, Karnataka. Pin-560022 (India)",WRONG PARKING,172.5,61.1,1.0,Sunday,4
8a60145b33a7fff,0.35249655312917416,0.1957643750023919,32.88841500040184,6,11,0.35249655312917416,Sunday,Low,CRITICAL,13.008543950996996,77.55239220773309,"Unnamed Road, One Bangalore West, Rajaji Nagar, Bengaluru, Karnataka. Pin-560010 (India)",NO PARKING,5.2,67.5,1.0,Monday,10
8a60145b33b7fff,0.7520820239946278,0.2562441947508364,43.04902471814051,0,10,0.7520820239946278,Monday,High,CRITICAL,13.009610641727006,77.5530115977988,"80 Feet Ring Road, One Bangalore West, Rajaji Nagar, Bengaluru, Karnataka. Pin-560010 (India)",WRONG PARKING,21.6,64.5,1.0,Monday,10
8a60145b3627fff,0.30613934691739475,0.1871073791972346,31.434039705135415,6,11,0.30613934691739475,Sunday,Low,HIGH,13.014951413427491,77.55370232133917,"Chord Road, WTC Annexe, Malleshwaram West, Bengaluru, Karnataka. Pin-560055 (India)",WRONG PARKING,6.6,21.0,0.0,Tuesday,12
8a60145b370ffff,0.8414236724397104,0.12670371732535757,21.286224510660073,2,10,0.8414236724397104,Wednesday,Low,CRITICAL,13.01388108130383,77.55428607061393,"Chord Road, WTC Annexe, Malleshwaram West, Bengaluru, Karnataka. Pin-560055 (India)",NO PARKING,163.9,21.6,0.0,Wednesday,10
8a60145b371ffff,0.9479934774800965,0.27357797928382993,45.96110051968343,5,11,0.9479934774800965,Saturday,High,HIGH,13.01494778858777,77.554905491187,"Mumbai Bengaluru Highway, WTC Annexe, Malleshwaram West, Bengaluru, Karnataka. Pin-560055 (India)",PARKING IN A MAIN ROAD,965.3,50.3,0.0,Saturday,11
8a60145b3727fff,0.3329069371486761,0.20212359351039028,33.956763709745566,6,11,0.3329069371486761,Sunday,Low,CRITICAL,13.012807094270212,77.55607299696705,"Brigade Gateway Road, World Trade Centre, Brigade Gateway, Malleshwaram West, Bengaluru, Karnataka. Pin-560055 (India)",NO PARKING,4.0,54.0,0.0,Sunday,5
8a60145b372ffff,0.8471849384460498,0.19153253551982266,32.17746596733021,1,0,0.8471849384460498,Tuesday,Low,CRITICAL,13.012810739032563,77.55486981967057,"Chord Road, World Trade Centre, Brigade Gateway, Malleshwaram West, Bengaluru, Karnataka. Pin-560055 (India)",WRONG PARKING,2034.75,22.6,0.0,Monday,10
8a60145b3747fff,0.8248368519031848,0.23379726177813753,39.277939978727105,0,11,0.8248368519031848,Monday,Medium,CRITICAL,13.012818011780558,77.5524635139164,"1st Main Road, Renaissance Temple Apartment, Yeshwanthpur Suburb Stage 2, Yeshwanthpur, Bengaluru, Karnataka. Pin-560022 (India)",NO PARKING,309.06,43.7,0.0,Friday,11
8a60145b374ffff,0.31282163839598903,0.1849794247604886,31.076543359762084,6,11,0.31282163839598903,Sunday,Low,CRITICAL,13.012821639766589,77.55126038546015,"6th Cross Road, Kirloskar Foundry, Yeshwanthpur Suburb Stage 2, Yeshwanthpur, Bengaluru, Karnataka. Pin-560022 (India)",WRONG PARKING,27.4,51.4,0.0,Monday,9
8a60145b375ffff,0.7705933838577397,0.2632082590790289,44.21898752527686,1,11,0.7705933838577397,Tuesday,High,CRITICAL,13.01388833412864,77.55187977230953,"1st Main Road, Renaissance Temple Apartment, Yeshwanthpur Suburb Stage 2, Yeshwanthpur, Bengaluru, Karnataka. Pin-560022 (India)",WRONG PARKING,67.4,57.9,0.0,Tuesday,4
8a60145b3767fff,0.8729122348736016,0.26103224281896265,43.85341679358572,6,2,0.8729122348736016,Sunday,High,CRITICAL,13.01174767928524,77.55304725530557,"Da Ra Bendre Road, Phoenix Kessaku, Rajaji Nagar, Bengaluru, Karnataka. Pin-560010 (India)",NO PARKING,2546.35,25.6,0.0,Sunday,8
8a60145b376ffff,0.8585326623323452,0.26551920710634275,44.60722679386558,0,10,0.8585326623323452,Monday,High,CRITICAL,13.011751317232966,77.55184412312398,"Da Ra Bendre Road, Kirloskar Foundry, Yeshwanthpur Suburb Stage 2, Yeshwanthpur, Bengaluru, Karnataka. Pin-560022 (India)",WRONG PARKING,3048.35,24.8,0.0,Sunday,8
8a60145b3777fff,0.7046643480839503,0.18098157099339587,30.404903926890505,5,10,0.7046643480839503,Saturday,Low,CRITICAL,13.01281437820262,77.55366665865346,"Da Ra Bendre Road, Orion, Brigade Gateway, Malleshwaram West, Bengaluru, Karnataka. Pin-560055 (India)",NO PARKING,1792.1,24.1,0.0,Thursday,10
8a60145b3a2ffff,0.7919857707363975,0.24619436810198567,41.36065384113359,3,3,0.7919857707363975,Thursday,Medium,CRITICAL,12.999995753611994,77.55224960147483,"80 Feet Ring Road, Block K, Rajaji Nagar, Bengaluru, Karnataka. Pin-560010 (India)",WRONG PARKING,110.4,50.7,1.0,Sunday,10
8a60145b3a47fff,0.7739299181188242,0.2495204105510141,41.919428972570365,6,8,0.7739299181188242,Sunday,Medium,CRITICAL,13.000003175983792,77.54984346680071,"WOC Road, Block 1, Rajaji Nagar, Bengaluru, Karnataka. Pin-560010 (India)",WRONG PARKING,3099.44,33.3,1.0,Sunday,8
8a60145b3a4ffff,0.2987093731897684,0.16391289374694823,27.5373661494873,6,10,0.2987093731897684,Sunday,Low,CRITICAL,13.000006878789026,77.54864042388483,"2nd Main Road, Block 1, Rajaji Nagar, Bengaluru, Karnataka. Pin-560010 (India)",WRONG PARKING,44.2,46.3,1.0,Thursday,10
8a60145b3a57fff,0.9337195771571184,0.31392217870752614,52.73892602286439,6,11,0.9337195771571184,Sunday,High,CRITICAL,13.001069841928478,77.5504628130789,"19th Main Road, Block 1, Rajaji Nagar, Bengaluru, Karnataka. Pin-560010 (India)",WRONG PARKING,1848.7,61.6,1.0,Friday,8
8a60145b3a5ffff,0.7642064881429951,0.24382553667817827,40.96269016193395,2,10,0.7642064881429951,Wednesday,Medium,CRITICAL,13.001073540360338,77.54925975760784,"WOC Road, Block 1, Rajaji Nagar, Bengaluru, Karnataka. Pin-560010 (India)",WRONG PARKING,260.5,53.0,1.0,Friday,9
8a60145b3a67fff,0.8577322769706575,0.3121963208392581,52.448981900995356,6,7,0.8577322769706575,Sunday,High,CRITICAL,12.998932801469074,77.55042717577645,"19th Main Road, Block 1, Rajaji Nagar, Bengaluru, Karnataka. Pin-560010 (India)",WRONG PARKING,1610.5,61.0,1.0,Friday,8
8a60145b3a6ffff,0.7510922191198318,0.20673231529104882,34.731028968896204,0,10,0.7510922191198318,Monday,Low,CRITICAL,12.998936514234671,77.54922412913453,"10th Cross Road, Block 1, Rajaji Nagar, Bengaluru, Karnataka. Pin-560010 (India)",WRONG PARKING,1658.7,48.4,1.0,Friday,10
8a60145b3a77fff,0.9245596314714851,0.30149401881616594,50.65099516111588,6,8,0.9245596314714851,Sunday,High,CRITICAL,12.999999467591532,77.55104652599762,"19th Main Road, Block 1, Rajaji Nagar, Bengaluru, Karnataka. Pin-560010 (India)",WRONG PARKING,988.2,63.1,1.0,Sunday,8
8a60145b3ae7fff,0.8129005808985811,0.21760778316016532,36.55810757090777,6,7,0.8129005808985811,Sunday,Low,CRITICAL,13.00213651206763,77.55108216796914,"10th A Cross Road, Ketamaranahalli, Block 1, Rajaji Nagar, Bengaluru, Karnataka. Pin-560010 (India)",WRONG PARKING,32.0,67.5,1.0,Sunday,7
8a60145b3aeffff,0.89570020643328,0.30810636774332884,51.761869780879245,1,9,0.89570020643328,Tuesday,High,CRITICAL,13.002140206126604,77.54987909994291,"19th Main Road, Dr M Munivenkataswamy Circle, Rajaji Nagar, Bengaluru, Karnataka. Pin-560010 (India)",WRONG PARKING,1034.3,63.0,1.0,Thursday,6
8a60145b3b47fff,0.8519146012592012,0.14126587968151355,23.732667786494275,1,8,0.8519146012592012,Tuesday,Low,CRITICAL,12.997858688504897,77.55221395118276,"Padmabhushan Dr MC Modi Road, Navarang Circle, Rajaji Nagar, Bengaluru, Karnataka. Pin-560010 (India)",WRONG PARKING,438.6,98.0,1.0,Tuesday,10
8a60145b3b4ffff,0.9698368651879186,0.2090300167397469,35.117042812277475,2,12,0.9698368651879186,Wednesday,Low,CRITICAL,12.997862416817124,77.55101088453493,"Padmabhushan Dr MC Modi Road, Star Circle, Rajaji Nagar, Bengaluru, Karnataka. Pin-560010 (India)",WRONG PARKING,567.0,53.7,1.0,Wednesday,12
8a60145b3b57fff,0.8505930180863006,0.22807043007969333,38.31583225338848,3,6,0.8505930180863006,Thursday,Medium,HIGH,12.998925359177294,77.55283331790126,"80 Feet Ring Road, Navarang Circle, Rajaji Nagar, Bengaluru, Karnataka. Pin-560010 (India)",WRONG PARKING,919.7,49.8,1.0,Monday,9
8a60145b3b6ffff,0.7459872221195711,0.2553596333922708,42.9004184099015,4,2,0.7459872221195711,Friday,High,CRITICAL,12.996792022028886,77.55159459307605,"19th Main Road, Star Circle, Rajaji Nagar, Bengaluru, Karnataka. Pin-560010 (India)",WRONG PARKING,46.0,55.0,1.0,Friday,2
8a60145b3d17fff,0.6630456138637129,0.26433473418680176,44.40823534338269,3,8,0.6630456138637129,Thursday,High,CRITICAL,13.0074254231139,77.56861791078559,"Siddavanahalli Krishna Sharma Road, Malleshwara Extension, Malleshwaram West, Bengaluru, Karnataka. Pin-560055 (India)",WRONG PARKING,28.8,54.0,0.0,Thursday,8
8a60145b3d37fff,0.9375023836559762,0.22195577542743447,37.28857027180899,6,7,0.9375023836559762,Sunday,Medium,CRITICAL,13.006354930350462,77.56920169201845,"Siddavanahalli Krishna Sharma Road, Malleshwara Extension, Malleshwaram West, Bengaluru, Karnataka. Pin-560055 (India)",NO PARKING,140.8,48.2,0.0,Sunday,7
8a60145b3da7fff,0.8909275665400203,0.23815185982371653,40.00951245038438,6,7,0.8909275665400203,Sunday,Medium,CRITICAL,13.008492170801858,77.56923746798664,"18th Cross Road, Sarangapani, Malleshwaram West, Bengaluru, Karnataka. Pin-560055 (India)",WRONG PARKING,300.4,49.7,0.0,Sunday,7
8a60145b3db7fff,0.24729026136701351,0.1451278540227104,24.381479475815347,6,11,0.24729026136701351,Sunday,Low,CRITICAL,13.009558922671186,77.56985703379944,"Siddavanahalli Krishna Sharma Road, Sarangapani, Malleshwaram West, Bengaluru, Karnataka. Pin-560055 (India)",NO PARKING,11.6,43.2,0.0,Wednesday,6
8a60145b4207fff,0.7460218154213991,0.24238616006035268,40.72087489013925,5,9,0.7460218154213991,Saturday,Medium,CRITICAL,12.978526573156593,77.5819730894831,"Seshadri Road, Railway Officers Enclave, Gandhi Nagar, Bengaluru, Karnataka. Pin-560009 (India)",WRONG PARKING,93.6,44.7,0.0,Saturday,9
8a60145b420ffff,0.7408921889769161,0.26422065429225944,44.38906992109958,2,1,0.7408921889769161,Wednesday,High,CRITICAL,12.978530570038938,77.58076969557492,"Vajreshwari Road, Railway Officers Enclave, Gandhi Nagar, Bengaluru, Karnataka. Pin-560009 (India)",NO PARKING,2202.9,59.2,1.0,Thursday,8
8a60145b421ffff,0.8996048358999301,0.22228684134177495,37.344189345418194,0,12,0.8996048358999301,Monday,Medium,CRITICAL,12.979597309315094,77.58138932146608,"1st Main Road, Railway Officers Enclave, Gandhi Nagar, Bengaluru, Karnataka. Pin-560009 (India)",WRONG PARKING,264.1,23.1,0.0,Monday,12
8a60145b422ffff,0.8046812585596474,0.21906855806060738,36.80351775418204,4,8,0.8046812585596474,Friday,Low,CRITICAL,12.977459833716251,77.58135345965503,"1st Main Road, Jakkarayana Kere, Gandhi Nagar, Bengaluru, Karnataka. Pin-560009 (India)",WRONG PARKING,76.0,75.6,1.0,Wednesday,13
8a60145b4247fff,0.9334277522404951,0.29338754269798556,49.28910717326158,0,2,0.9334277522404951,Monday,High,CRITICAL,12.977467830626429,77.57894671319185,"2nd Main Road, Sri Kanakadasa Circle, Gandhi Nagar, Bengaluru, Karnataka. Pin-560009 (India)",NO PARKING,2476.15,62.8,1.0,Friday,1
8a60145b424ffff,0.7303036202361589,0.25486190121178226,42.816799403579424,5,2,0.7303036202361589,Saturday,High,CRITICAL,12.977471820704286,77.57774336435139,"5th Main Road, Kempe Gowda Circle, Gandhi Nagar, Bengaluru, Karnataka. Pin-560009 (India)",WRONG PARKING,4541.05,61.6,1.0,Saturday,1
8a60145b4257fff,0.9276519627790625,0.3458556180022992,58.103743824386264,5,8,0.9276519627790625,Saturday,High,CRITICAL,12.978534561335836,77.57956631792673,"2nd Main Road, Jakkarayana Kere, Gandhi Nagar, Bengaluru, Karnataka. Pin-560009 (India)",NO PARKING,4055.05,64.1,1.0,Thursday,1
8a60145b425ffff,0.932180329073697,0.31345494425066545,52.66043063411179,4,3,0.932180329073697,Friday,High,CRITICAL,12.978538547047505,77.57836295653925,"5th Cross Road, Jakkarayana Kere, Gandhi Nagar, Bengaluru, Karnataka. Pin-560009 (India)",NO PARKING,4201.85,66.8,1.0,Thursday,1
8a60145b4267fff,0.8886361490981788,0.28498485727314166,47.8774560218878,4,7,0.8886361490981788,Friday,High,CRITICAL,12.976397104090829,77.57953046962126,"1st Main Road, Maharani College Junction, Gandhi Nagar, Bengaluru, Karnataka. Pin-560009 (India)",WRONG PARKING,3911.5,63.2,1.0,Sunday,10
8a60145b426ffff,0.9006773084582781,0.30379276446252834,51.03718442970476,1,8,0.9006773084582781,Tuesday,High,CRITICAL,12.976401104119606,77.57832711706658,"3rd Main Road, Sri Kanakadasa Circle, Gandhi Nagar, Bengaluru, Karnataka. Pin-560009 (India)",NO PARKING,3805.7,53.5,1.0,Wednesday,9
8a60145b4277fff,0.9433912707912491,0.2888792372530217,48.53171185850765,5,2,0.9433912707912491,Saturday,High,CRITICAL,12.977463834963816,77.58015007829333,"1st Main Road, Jakkarayana Kere, Gandhi Nagar, Bengaluru, Karnataka. Pin-560009 (India)",WRONG PARKING,3896.75,66.1,1.0,Tuesday,9
8a60145b42c7fff,0.7219365191409286,0.26997866687182037,45.35641603446582,6,2,0.7219365191409286,Sunday,High,CRITICAL,12.980672012338662,77.57960216674402,"Seshadri Road, Railway Officers Enclave, Gandhi Nagar, Bengaluru, Karnataka. Pin-560009 (India)",WRONG PARKING,355.9,48.9,1.0,Sunday,8
8a60145b42cffff,0.9310483401531371,0.24616498963807584,41.35571825919674,0,10,0.9310483401531371,Monday,Medium,CRITICAL,12.980675983733354,77.57839879652363,"Seshadri Road, R Subanna Circle, Gandhi Nagar, Bengaluru, Karnataka. Pin-560001 (India)",WRONG PARKING,550.85,36.3,1.0,Monday,10
8a60145b42e7fff,0.7890399055929574,0.2473743114919495,41.558884330647516,0,11,0.7890399055929574,Monday,Medium,CRITICAL,12.979601296246711,77.5801859312712,"Vajreshwari Road, Railway Officers Enclave, Gandhi Nagar, Bengaluru, Karnataka. Pin-560009 (India)",NO PARKING,266.1,62.5,1.0,Friday,2
8a60145b42effff,0.9345075040856918,0.26114889563509275,43.87301446669558,4,6,0.9345075040856918,Friday,High,CRITICAL,12.979605277592666,77.5789825573368,"Vajreshwari Road, Jakkarayana Kere, Gandhi Nagar, Bengaluru, Karnataka. Pin-560009 (India)",NO PARKING,1538.45,67.0,1.0,Thursday,1
8a60145b42f7fff,0.6781021041143861,0.24551620199273272,41.246721934779096,3,3,0.6781021041143861,Thursday,Medium,CRITICAL,12.980668035358011,77.58080555322535,"Seshadri Road, Railway Officers Enclave, Gandhi Nagar, Bengaluru, Karnataka. Pin-560009 (India)",WRONG PARKING,45.8,47.8,1.0,Sunday,8
8a60145b4347fff,0.9319010642734905,0.28392289176717483,47.69904581688537,3,5,0.9319010642734905,Thursday,High,CRITICAL,12.975322351878011,77.581317598356,"Y Ramachandra Road, Maharani College Junction, Gandhi Nagar, Bengaluru, Karnataka. Pin-560009 (India)",WRONG PARKING,1317.7,68.7,1.0,Sunday,9
8a60145b434ffff,0.313681175096327,0.18047124796560585,30.31916965822178,6,10,0.313681175096327,Sunday,Low,CRITICAL,12.975326367441657,77.58011422582732,"1st Main Road, Maharani College Junction, Gandhi Nagar, Bengaluru, Karnataka. Pin-560009 (India)",WRONG PARKING,7.3,63.7,1.0,Saturday,13
8a60145b4357fff,0.8137253546823988,0.199141892617866,33.455837959801485,5,9,0.8137253546823988,Saturday,Low,CRITICAL,12.976389087279582,77.58193722351143,"Y Ramachandra Road, Maharani College Junction, Gandhi Nagar, Bengaluru, Karnataka. Pin-560009 (India)",WRONG PARKING,23.4,71.3,1.0,Saturday,9
8a60145b435ffff,0.9351982858894499,0.2527155750488326,42.456216608203874,5,14,0.9351982858894499,Saturday,High,CRITICAL,12.976393098477567,77.58073383843644,"Y Ramachandra Road, Maharani College Junction, Gandhi Nagar, Bengaluru, Karnataka. Pin-560009 (India)",WRONG PARKING,721.0,69.6,1.0,Sunday,4
8a60145b4367fff,0.8753300501318554,0.2376262090225399,39.9212031157867,4,6,0.8753300501318554,Friday,Medium,HIGH,12.974251595166084,77.58190135805184,"Palace Road, Mysore Bank Circle, Chickpete, Bengaluru, Karnataka. Pin-560009 (India)",WRONG PARKING,409.1,66.3,1.0,Wednesday,8
8a60145b5137fff,0.7677867395638303,0.262077246937231,44.02897748545481,1,10,0.7677867395638303,Tuesday,High,CRITICAL,12.96893816135965,77.57278693679238,"Ravi Thivari Road, Sultanpet Circle, Chickpete, Bengaluru, Karnataka. Pin-560053 (India)",NO PARKING,52.2,52.3,0.0,Tuesday,12
8a60145b5407fff,0.9441529799584345,0.3051197895372538,51.260124642258646,3,1,0.9441529799584345,Thursday,High,CRITICAL,12.978554434046352,77.57354967361115,"Major T Ramachandrappa Road, AT Extension, Gandhi Nagar, Bengaluru, Karnataka. Pin-560009 (India)",WRONG PARKING,4176.9,65.1,1.0,Sunday,9
8a60145b540ffff,0.9162359189648639,0.24496552258629373,41.154207794497346,3,3,0.9162359189648639,Thursday,Medium,CRITICAL,12.9785583918352,77.57234639353825,"BTS Bus Station Road, Majestic, Bengaluru, Karnataka. Pin-560023 (India)",WRONG PARKING,143.9,36.0,1.0,Thursday,3
8a60145b5417fff,0.3416825683231386,0.17717083102738393,29.7646996126005,6,10,0.3416825683231386,Sunday,Low,CRITICAL,12.979621147123776,77.57416922421827,"Subedar Chatram Road, AT Extension, Gandhi Nagar, Bengaluru, Karnataka. Pin-560009 (India)",NO PARKING,49.6,67.5,1.0,Saturday,1
8a60145b541ffff,0.9499183879007829,0.23586351791465526,39.625071009662086,3,10,0.9499183879007829,Thursday,Medium,CRITICAL,12.979625100544494,77.5729659315971,"Dhanvanthri Road, Ayurvedic Hospital Junction, Gandhi Nagar, Bengaluru, Karnataka. Pin-560009 (India)",WRONG PARKING,864.95,71.3,1.0,Thursday,1
8a60145b5427fff,0.8045727650755957,0.21563280183010522,36.22631070745768,2,14,0.8045727650755957,Wednesday,Low,CRITICAL,12.9774837574316,77.57413341540315,"Major T Ramachandrappa Road, RK Puram, Gandhi Nagar, Bengaluru, Karnataka. Pin-560009 (India)",WRONG PARKING,2677.95,28.9,1.0,Friday,9
8a60145b542ffff,0.7211802531985972,0.19495489222521425,32.752421893835994,1,8,0.7211802531985972,Tuesday,Low,CRITICAL,12.97748772517267,77.57293013161392,"OTC Road, Majestic, Bengaluru, Karnataka. Pin-560023 (India)",WRONG PARKING,53.900000000000006,30.9,1.0,Monday,10
8a60145b5437fff,0.845685923421553,0.25862272692783156,43.448618123875704,5,8,0.845685923421553,Saturday,High,CRITICAL,12.97855047067338,77.57475296994845,"Subedar Chatram Road, AT Extension, Gandhi Nagar, Bengaluru, Karnataka. Pin-560009 (India)",WRONG PARKING,2799.09,60.9,1.0,Sunday,9
8a60145b5457fff,0.8262318155885119,0.24812101518784613,41.68433055155815,2,6,0.8262318155885119,Wednesday,Medium,CRITICAL,12.978562344040135,77.57114312973043,"Rao Bahadur DGT Road, Majestic Circle, Majestic, Bengaluru, Karnataka. Pin-560023 (India)",NO PARKING,411.15,26.9,1.0,Monday,9
8a60145b5477fff,0.7677451686101996,0.24930986066187893,41.88405659119566,5,12,0.7677451686101996,Saturday,Medium,CRITICAL,12.977491687330122,77.57172686408933,"OTC Road, Majestic Circle, Majestic, Bengaluru, Karnataka. Pin-560023 (India)",WRONG PARKING,56.2,26.4,1.0,Saturday,12
8a60145b5487fff,0.8834602608079699,0.22585683401000128,37.943948113680214,6,10,0.8834602608079699,Sunday,Medium,HIGH,12.981758530571383,77.57420503354466,"Padmabhushan Dr RK Kantan Road, Anand Rao Circle, Gandhi Nagar, Bengaluru, Karnataka. Pin-560009 (India)",WRONG PARKING,54.3,58.6,1.0,Sunday,10
8a60145b54a7fff,0.8231679528192133,0.2111037188583819,35.46542476820816,4,15,0.8231679528192133,Friday,Low,CRITICAL,12.980687864403874,77.57478878343528,"Subedar Chatram Road, Anand Rao Circle, Gandhi Nagar, Bengaluru, Karnataka. Pin-560009 (India)",WRONG PARKING,2094.6,27.3,1.0,Saturday,3
8a60145b54affff,0.8696720521387228,0.20430680009023808,34.32354241516,2,10,0.8696720521387228,Wednesday,Low,CRITICAL,12.980691813456929,77.57358547826587,"Seshadri Road, Anand Rao Circle, Gandhi Nagar, Bengaluru, Karnataka. Pin-560009 (India)",WRONG PARKING,504.45,71.9,1.0,Thursday,8
8a60145b54b7fff,0.7449719894023912,0.24248185002426567,40.736950804076635,4,7,0.7449719894023912,Friday,Medium,CRITICAL,12.98175458588554,77.57540835126223,"Loop Road, C Ranga Swamy Circle, Gandhi Nagar, Bengaluru, Karnataka. Pin-560001 (India)",NO PARKING,106.9,64.6,1.0,Wednesday,10
8a60145b54e7fff,0.3197459152157083,0.19669939940462516,33.04549909997703,6,11,0.3197459152157083,Sunday,Low,CRITICAL,12.97962904838084,77.57176265524076,"Seshadri Road, Ayurvedic Hospital Junction, Gandhi Nagar, Bengaluru, Karnataka. Pin-560009 (India)",NO PARKING,22.0,26.2,1.0,Sunday,0
8a60145b54f7fff,0.8028376537228289,0.24701034479992806,41.49773792638791,0,10,0.8028376537228289,Monday,Medium,CRITICAL,12.98069575692511,77.57238218936106,"Seshadri Road, Ayurvedic Hospital Junction, Gandhi Nagar, Bengaluru, Karnataka. Pin-560009 (India)",WRONG PARKING,225.3,62.1,1.0,Wednesday,0
8a60145b5507fff,0.8306775155177214,0.18610142892627768,31.265040059614652,2,9,0.8306775155177214,Wednesday,Low,CRITICAL,12.976409087424589,77.5759204607417,"Subedar Chatram Road, Kempe Gowda Circle, Gandhi Nagar, Bengaluru, Karnataka. Pin-560009 (India)",WRONG PARKING,2176.7,51.6,1.0,Saturday,2
8a60145b550ffff,0.9407260294197715,0.2468403694541801,41.46918206830225,1,5,0.9407260294197715,Tuesday,Medium,CRITICAL,12.97641307070122,77.57471715697295,"Major T Ramachandrappa Road, Elite Junction, Gandhi Nagar, Bengaluru, Karnataka. Pin-560009 (India)",WRONG PARKING,1940.85,32.9,1.0,Saturday,11
8a60145b5517fff,0.8402866051002804,0.2808827935238881,47.1883093120132,4,9,0.8402866051002804,Friday,High,CRITICAL,12.977475805197638,77.57654003177262,"6th Main Road, RK Puram, Gandhi Nagar, Bengaluru, Karnataka. Pin-560009 (India)",NO PARKING,5143.6,48.6,1.0,Saturday,8
8a60145b551ffff,0.9123212614658214,0.23986438579200473,40.29721681305679,3,1,0.9123212614658214,Thursday,Medium,CRITICAL,12.977479784106672,77.5753367154563,"Subedar Chatram Road, RK Puram, Gandhi Nagar, Bengaluru, Karnataka. Pin-560009 (India)",WRONG PARKING,5005.4,53.1,1.0,Tuesday,10
8a60145b5527fff,0.8928788165605828,0.2321190606756447,38.99600219350831,4,13,0.8928788165605828,Friday,Medium,CRITICAL,12.975338380628092,77.57650420580451,"Kempegowda Road, Kempe Gowda Circle, Gandhi Nagar, Bengaluru, Karnataka. Pin-560009 (India)",WRONG PARKING,3147.39,51.2,1.0,Monday,12
8a60145b552ffff,0.8504195598598977,0.24141660783531313,40.557990116332604,0,8,0.8504195598598977,Monday,Medium,CRITICAL,12.975342373856112,77.57530089832042,"Kempegowda Road, Kempe Gowda Circle, Gandhi Nagar, Bengaluru, Karnataka. Pin-560009 (India)",WRONG PARKING,2715.1,29.1,1.0,Monday,8
8a60145b5537fff,0.7997693636537954,0.30885622993824025,51.88784662962436,5,9,0.7997693636537954,Saturday,High,CRITICAL,12.976405098564122,77.57712378077314,"5th Main Road, Kempe Gowda Circle, Gandhi Nagar, Bengaluru, Karnataka. Pin-560009 (India)",WRONG PARKING,6622.85,53.5,1.0,Sunday,9
8a60145b555ffff,0.35706358100852265,0.24553864526944227,41.2504924052663,6,10,0.35706358100852265,Sunday,Medium,CRITICAL,12.97642102050387,77.57231059822651,"OTC Road, Majestic, Bengaluru, Karnataka. Pin-560023 (India)",PARKING IN A MAIN ROAD,13.0,50.6,1.0,Saturday,12
8a60145b5567fff,0.7594959524615696,0.25307240770783984,42.51616449491709,6,10,0.7594959524615696,Sunday,High,CRITICAL,12.974279656506535,77.5734780658353,"Dharmambudi Kere Road, Upparpet Junction, Gandhi Nagar, Bengaluru, Karnataka. Pin-560009 (India)",WRONG PARKING,153.7,33.3,1.0,Wednesday,8
8a60145b5577fff,0.8551903595681914,0.2637954293682582,44.317632133867384,5,6,0.8551903595681914,Saturday,High,CRITICAL,12.975346361500804,77.57409760709928,"Major T Ramachandrappa Road, Subash Nagar, Gandhi Nagar, Bengaluru, Karnataka. Pin-560009 (India)",WRONG PARKING,799.85,34.2,1.0,Saturday,9
8a60145b5587fff,0.9045029597865722,0.23387391941418662,39.29081846158335,0,0,0.9045029597865722,Monday,Medium,CRITICAL,12.979613223528302,77.57657585825223,"5th Main Road, R Subanna Circle, Gandhi Nagar, Bengaluru, Karnataka. Pin-560001 (India)",NO PARKING,774.6,58.4,1.0,Sunday,9
8a60145b558ffff,0.952509820279728,0.24416896613540803,41.02038631074855,0,1,0.952509820279728,Monday,Medium,CRITICAL,12.979617188118436,77.57537253310356,"Subedar Chatram Road, AT Extension, Gandhi Nagar, Bengaluru, Karnataka. Pin-560009 (India)",WRONG PARKING,2955.8,59.9,1.0,Sunday,9
8a60145b5597fff,0.9337796946212261,0.24914750151384163,41.85678025432539,1,7,0.9337796946212261,Tuesday,Medium,CRITICAL,12.980679949542294,77.57719544256489,"Dr MH Ambarish Road, R Subanna Circle, Gandhi Nagar, Bengaluru, Karnataka. Pin-560001 (India)",WRONG PARKING,598.1,45.9,1.0,Saturday,7
8a60145b559ffff,0.8933047387774183,0.24617561727397483,41.35750370202777,6,14,0.8933047387774183,Sunday,Medium,CRITICAL,12.98068390976574,77.57599210486852,"Seshadri Road, R Subanna Circle, Gandhi Nagar, Bengaluru, Karnataka. Pin-560001 (India)",WRONG PARKING,53.8,61.9,1.0,Sunday,14
8a60145b55a7fff,0.8590402509879961,0.24168759736527143,40.6035163573656,0,10,0.8590402509879961,Monday,Medium,CRITICAL,12.978542527174165,77.57715961141322,"5th Main Road, RK Puram, Gandhi Nagar, Bengaluru, Karnataka. Pin-560009 (India)",NO PARKING,1533.4,62.3,1.0,Friday,1
8a60145b55affff,0.7556996078640322,0.19121172184370935,32.12356926974317,5,1,0.7556996078640322,Saturday,Low,CRITICAL,12.97854650171605,77.57595628254938,"SC Road Cross, RK Puram, Gandhi Nagar, Bengaluru, Karnataka. Pin-560009 (India)",WRONG PARKING,86.85,55.0,1.0,Saturday,1
8a60145b55b7fff,0.8624505353149582,0.2854498191908678,47.955569624065795,4,5,0.8624505353149582,Friday,High,CRITICAL,12.9796092533531,77.57777919966355,"Vajreshwari Road, R Subanna Circle, Gandhi Nagar, Bengaluru, Karnataka. Pin-560001 (India)",NO PARKING,1590.9,62.5,1.0,Monday,1
8a60145b5807fff,0.7915931167695537,0.2252910210321377,37.84889153339913,6,23,0.7915931167695537,Sunday,Medium,CRITICAL,12.963592603741285,77.57329905534101,"Mysore Road, Chanda Nagar, Sultanpete, Bengaluru, Karnataka. Pin-560053 (India)",WRONG PARKING,18.0,47.5,1.0,Sunday,23
8a60145b5817fff,0.9045850087713875,0.309109514949261,51.93039851147584,3,1,0.9045850087713875,Thursday,High,CRITICAL,12.96465928847475,77.57391857324843,"AS Char Main Road, Chanda Nagar, Sultanpete, Bengaluru, Karnataka. Pin-560053 (India)",WRONG PARKING,2668.15,44.7,1.0,Sunday,0
8a60145b581ffff,0.8825106637916121,0.22290568790770662,37.44815556849471,6,0,0.8825106637916121,Sunday,Medium,CRITICAL,12.964663342140618,77.57271534244815,"BGS Flyover, Chanda Nagar, Sultanpete, Bengaluru, Karnataka. Pin-560053 (India)",WRONG PARKING,175.4,75.9,1.0,Sunday,0
8a60145b5887fff,0.9451766047573973,0.26640163210121975,44.75547419300492,3,7,0.9451766047573973,Thursday,High,CRITICAL,12.966796715509812,77.57395437899618,"AS Char Main Road, Sultanpete, Bengaluru, Karnataka. Pin-560053 (India)",WRONG PARKING,1285.25,67.5,1.0,Sunday,4
8a60145b5897fff,0.884181453013446,0.2580629169519137,43.3545700479215,3,7,0.884181453013446,Thursday,High,CRITICAL,12.967863408514535,77.57457391018397,"AS Char Main Road, Santhusapete, Chickpete, Bengaluru, Karnataka. Pin-560053 (India)",WRONG PARKING,3468.6,59.1,1.0,Tuesday,9
8a60145b58a7fff,0.8843005798899557,0.2513544646363307,42.22755005890356,6,23,0.8843005798899557,Sunday,High,CRITICAL,12.96572597742296,77.57453809976494,"Police Road, Old Tharagupete, Chickpete, Bengaluru, Karnataka. Pin-560002 (India)",WRONG PARKING,342.2,59.7,1.0,Monday,0
8a60145b58affff,0.9537431792339862,0.27414886761234514,46.05700975887398,1,9,0.9537431792339862,Tuesday,High,CRITICAL,12.965730026718148,77.57333485641759,"AS Char Main Road, Sultanpete, Bengaluru, Karnataka. Pin-560053 (India)",PARKING IN A MAIN ROAD,1192.44,58.8,1.0,Tuesday,9
8a60145b58b7fff,0.3426163395545149,0.18463658538480007,31.018946344646412,6,10,0.3426163395545149,Sunday,Low,CRITICAL,12.96679267058486,77.57515763489053,"Arcot Srinivasachar Cross Street, Old Tharagupete, Chickpete, Bengaluru, Karnataka. Pin-560002 (India)",WRONG PARKING,4.0,67.5,1.0,Friday,1
8a60145b5907fff,0.20809379454311058,0.1263232232966773,21.22230151384179,6,10,0.20809379454311058,Sunday,Low,CRITICAL,12.961447013112007,77.57566972240768,"KR Main Road, Bhartiya Medical Sangha Circle, Bangalore Medical College & Research Institute, Bengaluru, Karnataka. Pin-560002 (India)",WRONG PARKING,16.3,28.5,1.0,Wednesday,10
8a60145b5917fff,0.9083597047050008,0.25015649068011064,42.026290434258584,2,22,0.9083597047050008,Wednesday,Medium,CRITICAL,12.962513702525948,77.57628926073707,"KR Main Road, City Market Circle, Bengaluru, Karnataka. Pin-560002 (India)",WRONG PARKING,418.5,31.1,1.0,Saturday,22
8a60145b591ffff,0.8585823660434967,0.2499997002551356,41.99994964286278,6,22,0.8585823660434967,Sunday,Medium,CRITICAL,12.96251778167074,77.5750860062436,"Victoria Hospital Road, City Market Circle, Bengaluru, Karnataka. Pin-560002 (India)",WRONG PARKING,21.0,30.0,1.0,Sunday,22
8a60145b5927fff,0.9479871715457989,0.21456101675903363,36.04625081551765,6,10,0.9479871715457989,Sunday,Low,CRITICAL,12.96037623445008,77.57625343834924,"Sri Jalakanteshwara Swami Temple Road, Kalasipalyam, Bengaluru, Karnataka. Pin-560002 (India)",WRONG PARKING,295.0,74.0,1.0,Sunday,10
8a60145b592ffff,0.844080639204423,0.2462048537367144,41.36241542776802,6,12,0.844080639204423,Sunday,Medium,HIGH,12.960380327914775,77.5750501926871,"Tippu Sultan Palace Road, Bhartiya Medical Sangha Circle, Bangalore Medical College & Research Institute, Bengaluru, Karnataka. Pin-560002 (India)",WRONG PARKING,61.9,38.5,1.0,Sunday,12
8a60145b5937fff,0.8666463872768513,0.18455695107306988,31.00556778027574,6,4,0.8666463872768513,Sunday,Low,CRITICAL,12.961442924017907,77.576872980616,"VVI Road, Mothinagar, Kalasipalyam, Bengaluru, Karnataka. Pin-560002 (India)",WRONG PARKING,229.8,57.7,1.0,Thursday,5
8a60145b5987fff,0.7514093237895587,0.2900036339701081,48.72061050697816,3,3,0.7514093237895587,Thursday,High,CRITICAL,12.964651164404392,77.57632508363632,"Mysore Road, Sri Krishna Rajendra Market, Chickpete, Bengaluru, Karnataka. Pin-560002 (India)",WRONG PARKING,5824.05,25.1,1.0,Tuesday,1
8a60145b598ffff,0.9478217742854187,0.278295375194212,46.753623032627615,3,9,0.9478217742854187,Thursday,High,CRITICAL,12.96465522922941,77.57512182031141,"Mysore Road, Sri Krishna Rajendra Market, Chickpete, Bengaluru, Karnataka. Pin-560002 (India)",WRONG PARKING,2240.1,39.4,1.0,Sunday,0
8a60145b5997fff,0.29488467907941646,0.1232480696053949,20.705675693706343,3,9,0.29488467907941646,Thursday,Low,CRITICAL,12.965717862092571,77.57694463524612,"Avenue Road, Ragipet, Nagartapete, Bengaluru, Karnataka. Pin-560002 (India)",WRONG PARKING,146.6,48.3,1.0,Sunday,1
8a60145b599ffff,0.38492151252433787,0.1589624784822437,26.705696385016942,1,1,0.38492151252433787,Tuesday,Low,CRITICAL,12.96572192254784,77.57574135937467,"Sethu Rao Road, Sri Krishna Rajendra Market, Chickpete, Bengaluru, Karnataka. Pin-560002 (India)",WRONG PARKING,34.6,52.5,1.0,Tuesday,1
8a60145b59a7fff,0.9370011229298756,0.2604135258840621,43.74947234852243,2,9,0.9370011229298756,Wednesday,High,CRITICAL,12.963580396155455,77.57690880767531,"KR Main Road, City Market Circle, Bengaluru, Karnataka. Pin-560002 (India)",WRONG PARKING,6145.25,26.1,1.0,Thursday,0
8a60145b59affff,0.8377873519362162,0.24308589615230666,40.83843055358752,2,22,0.8377873519362162,Wednesday,Medium,CRITICAL,12.963584470930082,77.57570554063548,"KR Main Road, City Market Circle, Bengaluru, Karnataka. Pin-560002 (India)",WRONG PARKING,110.7,31.2,1.0,Tuesday,22
8a60145b59b7fff,0.8156861060764349,0.175943893646252,29.55857413257033,0,23,0.8156861060764349,Monday,Low,CRITICAL,12.964647093999488,77.57752836322246,"Silver Jubilee Park Road, City Market Circle, Bengaluru, Karnataka. Pin-560002 (India)",WRONG PARKING,3732.3,25.8,1.0,Sunday,9
8a60145b5c07fff,0.2061292079552168,0.12416646952282837,20.859966879835167,6,10,0.2061292079552168,Sunday,Low,CRITICAL,12.971059485347478,77.57763586148468,"Rangaswamy Temple Street, Balepet, Chikkapete, Chickpete, Bengaluru Central City Corporation, Bengaluru, Bangalore North, Bengaluru Urban, Karnataka, 560053, India",WRONG PARKING,1.0,45.0,1.0,Sunday,12
8a60145b5c0ffff,0.9526162251022181,0.21858768175504645,36.722730534847805,4,3,0.9526162251022181,Friday,Low,CRITICAL,12.97106351279601,77.5764325554028,"AS Char Main Road, Chickpete, Bengaluru, Karnataka. Pin-560053 (India)",WRONG PARKING,1121.4,57.5,1.0,Tuesday,9
8a60145b5c17fff,0.2775521888648613,0.1647101761512079,27.671309593402928,6,10,0.2775521888648613,Sunday,Low,CRITICAL,12.972126199561416,77.57825543965633,"5th Cross Road, Kempegowda Extension, Chickpete, Bengaluru, Karnataka. Pin-560009 (India)",NO PARKING,12.0,50.6,1.0,Thursday,9
8a60145b5c1ffff,0.8240660558925649,0.14447673049283016,24.27209072279547,4,10,0.8240660558925649,Friday,Low,CRITICAL,12.972130222641992,77.57705212102769,"AS Char Main Road, Balepete, Chickpete, Bengaluru, Karnataka. Pin-560053 (India)",WRONG PARKING,468.55,51.2,1.0,Friday,10
8a60145b5c37fff,0.1971287743298247,0.12183546216466346,20.46835764366346,6,11,0.1971287743298247,Sunday,Low,CRITICAL,12.971055452316604,77.57883918382767,"Ballapete Main Road, Huriupete, Chickpete, Bengaluru, Karnataka. Pin-560002 (India)",WRONG PARKING,2.6,45.0,1.0,Friday,11
8a60145b5c47fff,0.9582839547884257,0.22626923155165748,38.01323090067846,2,10,0.9582839547884257,Wednesday,Medium,CRITICAL,12.970000833394064,77.57460972111427,"Old Tharagupete Cross Road, Chickpet Circle, Chickpete, Bengaluru, Karnataka. Pin-560053 (India)",WRONG PARKING,164.55,53.5,1.0,Wednesday,10
8a60145b5c57fff,0.35170198342499154,0.24590603034860894,41.3122130985663,6,10,0.35170198342499154,Sunday,Medium,HIGH,12.971067534662469,77.57522926558276,"Sri Dharmaraya Swamy Temple Main Road, Avenue Circle, Chickpete, Bengaluru, Karnataka. Pin-560002 (India)",WRONG PARKING,1.0,45.0,1.0,Thursday,5
8a60145b5c5ffff,0.23923842570058948,0.1352004035754674,22.71366780067852,6,11,0.23923842570058948,Sunday,Low,HIGH,12.971071550947034,77.5740259920253,"Old Tharagupete Cross Road, Basettypet, Chickpete, Bengaluru, Karnataka. Pin-560053 (India)",WRONG PARKING,28.5,46.7,1.0,Tuesday,7
8a60145b5c67fff,0.753414604970034,0.1987620077560408,33.39201730301485,5,8,0.753414604970034,Saturday,Low,CRITICAL,12.968930105731197,77.57519344998097,"AS Char Main Road, Santhusapete, Chickpete, Bengaluru, Karnataka. Pin-560053 (India)",WRONG PARKING,693.15,51.8,1.0,Tuesday,9
8a60145b5c6ffff,0.8367504744831418,0.2565499544636644,43.10039234989562,1,12,0.8367504744831418,Tuesday,High,CRITICAL,12.96893413633588,77.57399018525513,"Ravi Thivari Road, Santhusapete, Chickpete, Bengaluru, Karnataka. Pin-560053 (India)",NO PARKING,173.55,57.5,1.0,Tuesday,12
8a60145b5c77fff,0.9489823770466546,0.203434407008086,34.17698037735845,0,0,0.9489823770466546,Monday,Low,CRITICAL,12.969996807158717,77.57581299838725,"AS Char Main Road, Chickpet Circle, Chickpete, Bengaluru, Karnataka. Pin-560053 (India)",WRONG PARKING,3570.65,51.2,1.0,Tuesday,9
8a60145b5c87fff,0.7720694879705325,0.2536795037881211,42.61815663640434,3,14,0.7720694879705325,Thursday,High,CRITICAL,12.974263654955625,77.57829127810561,"1st Cross Road, Kempegowda Maharaja Complex, Kempegowda Extension, Chickpete, Bengaluru, Karnataka. Pin-560009 (India)",WRONG PARKING,3399.65,30.0,1.0,Thursday,10
8a60145b5c8ffff,0.9100616130795645,0.21150914310825494,35.53353604218683,1,5,0.9100616130795645,Tuesday,Low,CRITICAL,12.974267663718088,77.57708795064464,"Kempegowda Road, Alankar Pearl Plaza, Kempegowda Extension, Chickpete, Bengaluru, Karnataka. Pin-560009 (India)",WRONG PARKING,345.0,29.8,1.0,Tuesday,9
8a60145b5c97fff,0.8938452777433347,0.24057230733016002,40.416147631466885,3,8,0.8938452777433347,Thursday,Medium,CRITICAL,12.975330377421065,77.5789108695587,"1st Main Road, Sagar Theatre Junction, Gandhi Nagar, Bengaluru, Karnataka. Pin-560009 (India)",WRONG PARKING,1391.8,59.8,1.0,Tuesday,8
8a60145b5c9ffff,0.8028698905678116,0.237130142029223,39.837863860909465,1,9,0.8028698905678116,Tuesday,Medium,CRITICAL,12.975334381816484,77.57770752955085,"BB Naidu Road, Sagar Theatre Junction, Gandhi Nagar, Bengaluru, Karnataka. Pin-560009 (India)",NO PARKING,699.55,26.4,1.0,Sunday,9
8a60145b5ca7fff,0.9162804366763528,0.3325590509222469,55.86992055493748,0,5,0.9162804366763528,Monday,High,CRITICAL,12.97319291798249,77.5788750264373,"3rd Cross Road, Kempegowda Extension, Chickpete, Bengaluru, Karnataka. Pin-560009 (India)",NO PARKING,6479.150000000001,50.1,1.0,Sunday,10
8a60145b5caffff,0.8472337564187015,0.1879598312165492,31.577251644380265,0,8,0.8472337564187015,Monday,Low,CRITICAL,12.973196936695553,77.57767169526196,"Hospital Road, Kempegowda Maharaja Complex, Kempegowda Extension, Chickpete, Bengaluru, Karnataka. Pin-560009 (India)",WRONG PARKING,1416.95,51.4,1.0,Sunday,8
8a60145b5cb7fff,0.8639153560621565,0.17557537354792765,29.496662756051848,6,10,0.8639153560621565,Sunday,Low,CRITICAL,12.974259640609588,77.57949462182764,"Kempegowda Road, Kempegowda Extension, Chickpete, Bengaluru, Karnataka. Pin-560009 (India)",NO PARKING,511.3,27.3,1.0,Sunday,8
8a60145b5cc7fff,0.8566182318468007,0.2366284311607411,39.753576435004504,6,8,0.8566182318468007,Sunday,Medium,CRITICAL,12.973204957372747,77.5752650816959,"SM Road, Balepet Circle, Chickpete, Bengaluru, Karnataka. Pin-560053 (India)",WRONG PARKING,72.10000000000001,58.5,1.0,Sunday,9
8a60145b5cd7fff,0.8551752307743226,0.2453359408273619,41.2164380589968,0,12,0.8551752307743226,Monday,Medium,CRITICAL,12.97427166689727,77.57588463944545,"Dharmambudi Kere Road, Balepet Circle, Chickpete, Bengaluru, Karnataka. Pin-560053 (India)",WRONG PARKING,262.7,64.2,1.0,Friday,8
8a60145b5cdffff,0.9050650269587257,0.2432445995115024,40.865092717932406,5,8,0.9050650269587257,Saturday,Medium,CRITICAL,12.974275664493335,77.57468134450876,"Dharmambudi Kere Road, Upparpet Junction, Gandhi Nagar, Bengaluru, Karnataka. Pin-560009 (India)",WRONG PARKING,1107.15,31.8,1.0,Wednesday,8
8a60145b5ceffff,0.7622593151231257,0.2418866807095228,40.63696235919983,6,6,0.7622593151231257,Sunday,Medium,HIGH,12.972138252055633,77.57464553255586,"Lakshman Rayara Road, Basettypet, Chickpete, Bengaluru, Karnataka. Pin-560053 (India)",WRONG PARKING,16.0,56.2,1.0,Sunday,6
8a60145b5cf7fff,0.24901278743766808,0.15681442862808814,26.34482400951881,6,10,0.24901278743766808,Sunday,Low,CRITICAL,12.97320094982556,77.57646838034792,"Hospital Road, Alankar Pearl Plaza, Kempegowda Extension, Chickpete, Bengaluru, Karnataka. Pin-560009 (India)",NO PARKING,7.6,55.0,1.0,Tuesday,4
8a60145b5d47fff,0.23944397624607716,0.14921765359682293,25.068565804266253,6,11,0.23944397624607716,Sunday,Low,CRITICAL,12.9678553218233,77.57698046332845,"Mamulpet Road, Suraj Junction, Chickpete, Bengaluru, Karnataka. Pin-560002 (India)",WRONG PARKING,32.0,49.6,1.0,Friday,9
8a60145b5d4ffff,0.37522576632918775,0.19516845170537916,32.7882998865037,4,11,0.37522576632918775,Friday,Low,CRITICAL,12.96785936795936,77.57577717862526,"Mamulpet Road, Ganjam Mutt, Chickpete, Bengaluru, Karnataka. Pin-560002 (India)",WRONG PARKING,24.9,63.7,1.0,Friday,11
8a60145b5d57fff,0.24164478600927206,0.1440613215693816,24.202302023656106,6,11,0.24164478600927206,Sunday,Low,HIGH,12.96892202777815,77.57760002821901,"Old Tharagupete Cross Road, Suraj Junction, Chickpete, Bengaluru, Karnataka. Pin-560002 (India)",WRONG PARKING,88.85000000000001,47.8,1.0,Tuesday,8
8a60145b5d5ffff,0.8819461387964544,0.18827110261370428,31.62954523910232,3,6,0.8819461387964544,Thursday,Low,CRITICAL,12.96892606954535,77.57639673096917,"Mamulpet Road, Ganjam Mutt, Chickpete, Bengaluru, Karnataka. Pin-560002 (India)",WRONG PARKING,112.75,46.9,1.0,Thursday,6
8a60145b5d67fff,0.9647625987927297,0.15681712852701202,26.345277592538018,6,0,0.9647625987927297,Sunday,Low,CRITICAL,12.966784563993516,77.57756419546493,"Avenue Road, Medarpet, Nagartapete, Bengaluru, Karnataka. Pin-560002 (India)",WRONG PARKING,507.6,52.0,1.0,Sunday,0
8a60145b5d6ffff,0.3455473919355598,0.23723999251809452,39.85631874303988,6,10,0.3455473919355598,Sunday,Medium,CRITICAL,12.966788620079502,77.57636090704702,"Sethu Rao Road, New Complex, Sri Krishna Rajendra Market, Chickpete, Bengaluru, Karnataka. Pin-560002 (India)",NO PARKING,6.0,52.5,1.0,Saturday,22
8a60145b5d87fff,0.8084461623916196,0.16510446749744134,27.737550539570144,3,11,0.8084461623916196,Thursday,Low,CRITICAL,12.97211813665162,77.58066212569537,"Avenue Road, Mysore Bank Circle, Chickpete, Bengaluru, Karnataka. Pin-560009 (India)",NO PARKING,360.35,47.4,1.0,Saturday,10
8a60145b5d8ffff,0.8886005914315391,0.22269622295605324,37.412965456616945,4,11,0.8886005914315391,Friday,Medium,CRITICAL,12.97212217089803,77.5794587745458,"Hospital Road, Kempegowda Extension, Chickpete, Bengaluru, Karnataka. Pin-560009 (India)",NO PARKING,368.65,48.4,1.0,Friday,11
8a60145b5d97fff,0.7539548630612688,0.20707904905545368,34.78928024131622,6,9,0.7539548630612688,Sunday,Low,CRITICAL,12.97318486380629,77.58128173756899,"Kempegowda Road, Mysore Bank Circle, Chickpete, Bengaluru, Karnataka. Pin-560009 (India)",WRONG PARKING,1014.45,56.9,1.0,Tuesday,10
8a60145b5d9ffff,0.8449851522808713,0.2237410888251717,37.58850292262885,1,7,0.8449851522808713,Tuesday,Medium,CRITICAL,12.973188893686135,77.58007837387322,"Kempegowda Road, Mysore Bank Circle, Chickpete, Bengaluru, Karnataka. Pin-560009 (India)",NO PARKING,926.55,28.2,1.0,Thursday,8
8a60145b5daffff,0.1971287743298247,0.12227786773326328,20.542681779188232,6,11,0.1971287743298247,Sunday,Low,CRITICAL,12.97105141370319,77.58004252243099,"Avenue Road, KR Settypet, Nagartapete, Bengaluru, Karnataka. Pin-560002 (India)",WRONG PARKING,3.3,45.0,1.0,Sunday,6
8a6016901907fff,0.9033454374380122,0.2337582579925662,39.27138734275112,5,11,0.9033454374380122,Saturday,Medium,CRITICAL,13.185608135049264,77.68064176165208,"Unnamed Road, Begur Chikkanahalli, Bengaluru, Karnataka. Pin-562149 (India)",NO PARKING,188.1,38.5,0.0,Saturday,11
8a601690190ffff,0.9117959972686976,0.31833382401676047,53.48008243481576,0,1,0.9117959972686976,Monday,High,CRITICAL,13.185611191536774,77.67943622653485,"Unnamed Road, Begur Chikkanahalli, Bengaluru, Karnataka. Pin-562149 (India)",NO PARKING,2443.2,37.1,0.0,Sunday,11
8a6016901917fff,0.9066062721315025,0.2751671851482169,46.228087104900446,5,9,0.9066062721315025,Saturday,High,CRITICAL,13.186675595864036,77.6812628452801,"Unnamed Road, Begur Chikkanahalli, Bengaluru, Karnataka. Pin-562149 (India)",WRONG PARKING,572.4,36.0,0.0,Sunday,2
8a601690191ffff,0.9187804463529976,0.3371324134645061,56.63824546203703,0,10,0.9187804463529976,Monday,High,CRITICAL,13.186678648066945,77.68005729762139,"Unnamed Road, Begur Chikkanahalli, Bengaluru, Karnataka. Pin-562149 (India)",NO PARKING,2792.9,36.8,0.0,Saturday,11
8a601690192ffff,0.9524613773879193,0.4358940057954885,73.23019297364206,4,14,0.9524613773879193,Friday,High,CRITICAL,13.184540678230835,77.68002068664106,"Unnamed Road, Begur Chikkanahalli, Bengaluru, Karnataka. Pin-562149 (India)",NO PARKING,9016.16,37.7,0.0,Friday,8
8a6016901967fff,0.36250016545262187,0.2205188736326505,37.047170770285284,6,10,0.36250016545262187,Sunday,Low,CRITICAL,13.18347629046807,77.6781941102129,"Unnamed Road, Jagajothi Nagar, Muthugada Halli, Bengaluru, Karnataka. Pin-562157 (India)",NO PARKING,5.2,36.0,0.0,Friday,8
8a601690196ffff,0.7371448116145356,0.25512802780884575,42.861508671886085,5,2,0.7371448116145356,Saturday,High,CRITICAL,13.183479349852702,77.67698861640088,"Unnamed Road, Jagajothi Nagar, Muthugada Halli, Bengaluru, Karnataka. Pin-562157 (India)",PARKING IN A MAIN ROAD,24.0,36.0,0.0,Saturday,2
8a6016901977fff,0.35823680581240774,0.24876208530519353,41.792030331272514,0,11,0.35823680581240774,Monday,Medium,CRITICAL,13.184543739003455,77.67881516406536,"Unnamed Road, Begur Chikkanahalli, Bengaluru, Karnataka. Pin-562149 (India)",PARKING IN A MAIN ROAD,8.0,36.0,0.0,Wednesday,12
8a6016901987fff,0.320345343702535,0.19189486466133338,32.23833726310401,6,11,0.320345343702535,Sunday,Low,CRITICAL,13.18881357311336,77.6812994656458,"Unnamed Road, Begur Chikkanahalli, Bengaluru, Karnataka. Pin-562149 (India)",WRONG PARKING,4.0,36.0,0.0,Sunday,1
8a601690198ffff,0.8636156878300605,0.2930337051953855,49.22966247282477,3,5,0.8636156878300605,Thursday,High,CRITICAL,13.188816611072433,77.680093909125,"Unnamed Road, Begur Chikkanahalli, Bengaluru, Karnataka. Pin-562149 (India)",WRONG PARKING,526.8,36.0,0.0,Tuesday,2
8a60169019affff,0.921879595744846,0.3048200172152568,51.20976289216314,2,10,0.921879595744846,Wednesday,High,CRITICAL,13.187746108592831,77.68067837732502,"Unnamed Road, Begur Chikkanahalli, Bengaluru, Karnataka. Pin-562149 (India)",WRONG PARKING,1751.2,36.6,0.0,Wednesday,10
8a601690528ffff,0.8479097393386492,0.2575718515881181,43.27207106680383,4,3,0.8479097393386492,Friday,High,CRITICAL,13.18346707827208,77.68181068897857,"Unnamed Road, Begur Chikkanahalli, Bengaluru, Karnataka. Pin-562149 (India)",WRONG PARKING,272.4,36.2,0.0,Thursday,4
8a601690529ffff,0.7340207179204049,0.24672797167614738,41.45029924159276,3,4,0.7340207179204049,Thursday,Medium,CRITICAL,13.184534539662677,77.68243178045499,"Unnamed Road, Begur Chikkanahalli, Bengaluru, Karnataka. Pin-562149 (India)",WRONG PARKING,16.0,36.0,0.0,Thursday,4
8a60169052c7fff,0.35823680581240774,0.24868690197861457,41.77939953240725,0,11,0.35823680581240774,Monday,Medium,CRITICAL,13.182402701570082,77.67998407618401,"Unnamed Road, Jagajothi Nagar, Muthugada Halli, Bengaluru, Karnataka. Pin-562157 (India)",NO PARKING,8.0,36.0,0.0,Friday,3
8a60169052cffff,0.3571848625931781,0.24870850652310414,41.783029095881496,0,11,0.3571848625931781,Monday,Medium,CRITICAL,13.182405776587544,77.6787785624699,"Unnamed Road, Jagajothi Nagar, Muthugada Halli, Bengaluru, Karnataka. Pin-562157 (India)",WRONG PARKING,20.0,36.0,0.0,Thursday,5
8a60169052d7fff,0.8414932249032663,0.24958233954892325,41.92983304421911,2,3,0.8414932249032663,Wednesday,Medium,CRITICAL,13.18347015467798,77.68060514650249,"Unnamed Road, Begur Chikkanahalli, Bengaluru, Karnataka. Pin-562149 (India)",NO PARKING,507.9,38.4,0.0,Tuesday,5
8a60169052dffff,0.945630266285196,0.38866234429066454,65.29527384083164,3,13,0.945630266285196,Thursday,High,CRITICAL,13.183473225409896,77.67939962024703,"Unnamed Road, Begur Chikkanahalli, Bengaluru, Karnataka. Pin-562149 (India)",NO PARKING,5710.66,37.5,0.0,Saturday,11
8a601690c217fff,0.33008155354066254,0.19843789091575487,33.33756567384682,6,11,0.33008155354066254,Sunday,Low,CRITICAL,13.188902243859848,77.64513982937241,"Bengaluru Bellary Road, Sadahalli Gate Junction, Navarathna Agrahara, Bengaluru, Karnataka. Pin-562157 (India)",NO PARKING,8.0,54.0,0.0,Wednesday,7
8a601690c287fff,0.943753972078513,0.266680334263952,44.802296156343935,3,12,0.943753972078513,Thursday,High,CRITICAL,13.191039786640754,77.64517618448406,"Bengaluru Bellary Road, Sadahalli Gate Junction, Navarathna Agrahara, Bengaluru, Karnataka. Pin-562157 (India)",NO PARKING,716.9,54.0,0.0,Sunday,1
8a601690c297fff,0.8041305810289914,0.25962633011993297,43.617223460148736,4,11,0.8041305810289914,Friday,High,CRITICAL,13.19210713014754,77.64579690974534,"Ronald Colaco Road, Sadahalli Gate Junction, Navarathna Agrahara, Bengaluru, Karnataka. Pin-562157 (India)",NO PARKING,69.85,51.0,0.0,Friday,11
8a601690c2a7fff,0.8244692234094337,0.27965699624164464,46.9823753685963,0,13,0.8244692234094337,Monday,High,CRITICAL,13.18996958365248,77.64576054994575,"Bengaluru Bellary Road, Sadahalli Gate Junction, Navarathna Agrahara, Bengaluru, Karnataka. Pin-562157 (India)",NO PARKING,289.2,55.3,0.0,Tuesday,7
8a601690c2affff,0.8751021150457136,0.2535449789938197,42.59555647096171,2,10,0.8751021150457136,Wednesday,High,CRITICAL,13.18997244713958,77.6445554678416,"Bengaluru Bellary Road, Sadahalli Gate Junction, Navarathna Agrahara, Bengaluru, Karnataka. Pin-562157 (India)",NO PARKING,58.8,54.0,0.0,Wednesday,10
8a601690c2b7fff,0.9552448058476025,0.36780054666534207,61.79049183977747,1,12,0.9552448058476025,Tuesday,High,CRITICAL,13.191036927451368,77.6463812791378,"Bengaluru Bellary Road, Sadahalli Gate Junction, Navarathna Agrahara, Bengaluru, Karnataka. Pin-562157 (India)",NO PARKING,3580.36,36.7,0.0,Monday,1
8a601690c747fff,0.35411598542602973,0.2401368400328815,40.34298912552409,0,11,0.35411598542602973,Monday,Medium,CRITICAL,13.19210141469265,77.648207140394,"Bengaluru Bellary Road, Sadahalli Gate Junction, Navarathna Agrahara, Bengaluru, Karnataka. Pin-562157 (India)",NO PARKING,12.0,36.0,0.0,Monday,12
8a601690c74ffff,0.9707643529137802,0.2923844125669127,49.12058131124134,1,14,0.9707643529137802,Tuesday,High,CRITICAL,13.192104275255424,77.6470020169486,"Bengaluru Bellary Road, Sadahalli Gate Junction, Navarathna Agrahara, Bengaluru, Karnataka. Pin-562157 (India)",PARKING IN A MAIN ROAD,996.0,58.7,0.0,Tuesday,2
8a6016964b2ffff,0.821767932085729,0.2688082655591903,45.15978861394397,6,9,0.821767932085729,Sunday,High,CRITICAL,13.072552767793288,77.58957085685945,"Sahakar Nagar Road, L&T Realty Elara Celestia, Byatarayanapura, Bengaluru, Karnataka. Pin-560092 (India)",WRONG PARKING,191.55,53.8,0.0,Sunday,10
8a6016964b47fff,0.3260014353744864,0.19774678978197477,33.22146068337176,6,11,0.3260014353744864,Sunday,Low,CRITICAL,13.07255955260552,77.58716314506412,"Sahakar Nagar Road, SSVR Fairy Bells, Rajiv Gandhi Nagar, Sahakara Nagar, Bengaluru, Karnataka. Pin-560097 (India)",WRONG PARKING,15.0,40.0,0.0,Monday,12
8a6016964b4ffff,0.35474980565449576,0.21666190778278985,36.399200507508695,6,11,0.35474980565449576,Sunday,Low,CRITICAL,13.072562936583497,77.58595931356511,"4th Main Road, SSVR Fairy Bells, Rajiv Gandhi Nagar, Sahakara Nagar, Bengaluru, Karnataka. Pin-560097 (India)",WRONG PARKING,7.800000000000001,42.0,0.0,Monday,11
8a6016964b67fff,0.917208446881512,0.3202913264064436,53.80894283628252,0,8,0.917208446881512,Monday,High,CRITICAL,13.071489231479358,77.58774710712332,"Sahakar Nagar Road, Fortuna Acacia, Byatarayanapura, Bengaluru, Karnataka. Pin-560092 (India)",WRONG PARKING,4122.8,37.1,0.0,Monday,11
8a6016964b6ffff,0.2897428552716807,0.16513712397195596,27.743036827288602,6,11,0.2897428552716807,Sunday,Low,CRITICAL,13.071492625420271,77.58654327191101,"4th Main Road, SSVR Fairy Bells, Rajiv Gandhi Nagar, Sahakara Nagar, Bengaluru, Karnataka. Pin-560097 (India)",WRONG PARKING,24.0,42.6,0.0,Sunday,12
8a6016964b77fff,0.8625103422000026,0.21795325800292806,36.616147344491914,0,12,0.8625103422000026,Monday,Low,CRITICAL,13.072556163008834,77.58836699282915,"Sahakar Nagar Road, L&T Realty Elara Celestia, Byatarayanapura, Bengaluru, Karnataka. Pin-560092 (India)",WRONG PARKING,303.90000000000003,40.1,0.0,Sunday,11
8a6189209207fff,0.9137146260722947,0.384723203141336,64.63349812774445,3,11,0.9137146260722947,Thursday,High,CRITICAL,12.93322364752312,77.69077993064658,"New Horizon College Road, New Horizon College of Engineering, Kadubisanahalli, Bengaluru, Karnataka. Pin-560103 (India)",NO PARKING,6038.2,18.8,0.0,Saturday,4
8a618920920ffff,0.7801857685377346,0.24745819672190814,41.57297704928057,3,10,0.7801857685377346,Thursday,Medium,CRITICAL,12.933228452848882,77.68957524601248,"Outer Ring Road, Embassy Tech Village, Devara Beesana Halli, Bengaluru, Karnataka. Pin-560103 (India)",NO PARKING,307.7,46.6,0.0,Wednesday,8
8a6189209217fff,0.9345960259229088,0.3014760205755594,50.64797145669397,3,11,0.9345960259229088,Thursday,High,CRITICAL,12.93429070176952,77.69140061126606,"New Horizon College Road, New Horizon College of Engineering, Kadubisanahalli, Bengaluru, Karnataka. Pin-560103 (India)",NO PARKING,1089.0,18.7,0.0,Thursday,11
8a618920921ffff,0.8864470770557856,0.27953874034216375,46.96250837748351,5,8,0.8864470770557856,Saturday,High,CRITICAL,12.934295502764948,77.69019591411327,"New Horizon College Road, New Horizon College of Engineering, Kadubisanahalli, Bengaluru, Karnataka. Pin-560103 (India)",PARKING IN A MAIN ROAD,2964.7,38.5,0.0,Friday,5
8a6189209227fff,0.8881158948018257,0.28390316479438965,47.69573168545746,5,10,0.8881158948018257,Saturday,High,CRITICAL,12.932151782226024,77.69136394693327,"New Horizon College Road, Embassy Tech Village, Devara Beesana Halli, Bengaluru, Karnataka. Pin-560103 (India)",NO PARKING,1144.5,19.4,0.0,Thursday,10
8a6189209237fff,0.9124530545012874,0.2752790771971446,46.246884969120295,5,8,0.9124530545012874,Saturday,High,CRITICAL,12.933218836607226,77.69198463146874,"New Horizon College Road, Embassy Tech Village, Devara Beesana Halli, Bengaluru, Karnataka. Pin-560103 (India)",NO PARKING,503.3,19.4,0.0,Thursday,10
8a6189209247fff,0.9400617345374247,0.24962308621148968,41.936678483530265,4,6,0.9400617345374247,Friday,Medium,HIGH,12.932166211195808,77.68774993058796,"Outer Ring Road, Vajram Onyx, Devara Beesana Halli, Bengaluru, Karnataka. Pin-560103 (India)",WRONG PARKING,1110.2,51.1,0.0,Thursday,8
8a618920924ffff,0.7675769904873608,0.2411357740431124,40.510810039242884,3,6,0.7675769904873608,Thursday,Medium,CRITICAL,12.932171009673656,77.68654529085148,"Devarabisanahalli Road, Shilpitha Tech Park, Kariyammana Agrahara, Bengaluru, Karnataka. Pin-560103 (India)",NO PARKING,67.5,52.2,0.0,Wednesday,11
8a6189209257fff,0.861111049790937,0.2575982413192109,43.27650454162743,3,3,0.861111049790937,Thursday,High,CRITICAL,12.93323325258469,77.68837057756718,"Outer Ring Road, Vaswani Melrose, Chandana, Kadubisanahalli, Bengaluru, Karnataka. Pin-560103 (India)",NO PARKING,1748.4,31.4,0.0,Thursday,3
8a6189209267fff,0.6973377469202835,0.24921611635542856,41.868307547712,3,8,0.6973377469202835,Thursday,Medium,HIGH,12.931094365605665,77.6883339356185,"Outer Ring Road, Vajram Onyx, Devara Beesana Halli, Bengaluru, Karnataka. Pin-560103 (India)",PARKING IN A MAIN ROAD,41.8,51.4,0.0,Thursday,8
8a618920926ffff,0.8520215837792214,0.2668111448706699,44.82427233827254,3,2,0.8520215837792214,Thursday,High,CRITICAL,12.931099174004444,77.6871292922113,"Outer Ring Road, Vajram Onyx, Devara Beesana Halli, Bengaluru, Karnataka. Pin-560103 (India)",NO PARKING,225.35,49.3,0.0,Thursday,2
8a6189209277fff,0.9515882426252801,0.22688848690930424,38.117265800763114,3,6,0.9515882426252801,Thursday,Medium,CRITICAL,12.932161407128747,77.68895458651426,"Outer Ring Road, Vajram Onyx, Devara Beesana Halli, Bengaluru, Karnataka. Pin-560103 (India)",NO PARKING,314.5,47.2,0.0,Thursday,6
8a6189209287fff,0.8912999908278532,0.25209999280661083,42.352798791510615,3,8,0.8912999908278532,Thursday,High,CRITICAL,12.93642961518056,77.69143727612251,"Outer Ring Road, Hall Mark, Kadubisanahalli, Bengaluru, Karnataka. Pin-560103 (India)",NO PARKING,179.2,48.5,0.0,Thursday,8
8a618920928ffff,0.658348280207093,0.2657634573296631,44.6482608313834,3,3,0.658348280207093,Thursday,High,CRITICAL,12.936434401925323,77.69023257012044,"Kariyammana Agrahara Road, Prestige Silver Crest, Kadubisanahalli, Bengaluru, Karnataka. Pin-560103 (India)",WRONG PARKING,21.0,36.0,0.0,Thursday,3
8a61892092a7fff,0.925604330173957,0.24990287544883175,41.98368307540373,2,4,0.925604330173957,Wednesday,Medium,CRITICAL,12.935357760210332,77.69202130048805,"Outer Ring Road, Rajiv Nagar, Kadubisanahalli, Bengaluru, Karnataka. Pin-560103 (India)",PARKING IN A MAIN ROAD,384.6,49.1,0.0,Wednesday,4
8a61892092affff,0.9154482767847257,0.2653266103494658,44.57487053871026,2,10,0.9154482767847257,Wednesday,High,CRITICAL,12.935362556875868,77.6908165908166,"Kariyammana Agrahara Road, Prestige Silver Crest, Kadubisanahalli, Bengaluru, Karnataka. Pin-560103 (India)",NO PARKING,1312.1,45.6,0.0,Tuesday,2
8a61892092b7fff,0.9170978390766917,0.2851396307001002,47.90345795761683,2,2,0.9170978390766917,Wednesday,High,HIGH,12.93642482284442,77.69264199831257,"Outer Ring Road, Rajiv Nagar, Kadubisanahalli, Bengaluru, Karnataka. Pin-560103 (India)",NO PARKING,2112.22,47.6,0.0,Wednesday,4
8a61892092c7fff,0.320345343702535,0.19221425145976911,32.29199424524121,6,11,0.320345343702535,Sunday,Low,CRITICAL,12.935372133434502,77.6884072200392,"Kariyammana Agrahara Road, Prestige Silver Crest, Kadubisanahalli, Bengaluru, Karnataka. Pin-560103 (India)",NO PARKING,5.3,36.0,0.0,Saturday,4
8a61892092d7fff,0.3175924455601727,0.18953819239293862,31.84241632201369,6,11,0.3175924455601727,Sunday,Low,CRITICAL,12.936439183078935,77.68902788030711,"Kariyammana Agrahara Road, Prestige Silver Crest, Kadubisanahalli, Bengaluru, Karnataka. Pin-560103 (India)",NO PARKING,4.0,36.0,0.0,Thursday,5
8a61892092e7fff,0.8100598734294833,0.2304337242254894,38.71286566988222,1,4,0.8100598734294833,Tuesday,Medium,CRITICAL,12.934300298169957,77.688991233149,"Outer Ring Road, Prestige Silver Crest, Kadubisanahalli, Bengaluru, Karnataka. Pin-560103 (India)",NO PARKING,133.9,48.3,0.0,Friday,5
8a61892092f7fff,0.8154870183852425,0.24268002094705354,40.770243519104994,2,9,0.8154870183852425,Wednesday,Medium,CRITICAL,12.93536734795052,77.68961189733339,"Kariyammana Agrahara Road, Prestige Silver Crest, Kadubisanahalli, Bengaluru, Karnataka. Pin-560103 (India)",NO PARKING,266.2,36.9,0.0,Thursday,5
8a618920930ffff,0.7542789568979162,0.2574307419998686,43.24836465597792,3,10,0.7542789568979162,Thursday,High,CRITICAL,12.931079906874576,77.69194796297316,"New Horizon College Road, Embassy Tech Village, Devara Beesana Halli, Bengaluru, Karnataka. Pin-560103 (India)",PARKING IN A MAIN ROAD,32.2,24.8,0.0,Thursday,11
8a618920931ffff,0.9375800717855634,0.2529913481156837,42.502546483434855,3,10,0.9375800717855634,Thursday,High,CRITICAL,12.932146961389952,77.69256865142451,"New Horizon College Road, Embassy Tech Village, Devara Beesana Halli, Bengaluru, Karnataka. Pin-560103 (India)",PARKING IN A MAIN ROAD,204.4,25.8,0.0,Thursday,10
8a618920939ffff,0.9267382574504999,0.25170267268493085,42.286049011068386,2,3,0.9267382574504999,Wednesday,High,HIGH,12.93535295795366,77.69322602634702,"Embassy Tech Square Main Road, Embassy Tech Square, Kadubisanahalli, Bengaluru, Karnataka. Pin-560103 (India)",NO PARKING,77.0,45.0,0.0,Wednesday,3
8a6189209607fff,0.20301867606218943,0.12236501917196825,20.557323220890666,6,10,0.20301867606218943,Sunday,Low,CRITICAL,12.94069311529191,77.69512487563676,"Kadubeesanahalli Underpass, Kadubisanahalli, Bengaluru, Karnataka. Pin-560103 (India)",NO PARKING,2.6,42.0,0.0,Saturday,9
8a6189209617fff,0.9440379715277738,0.2331872269746803,39.17545413174629,2,9,0.9440379715277738,Wednesday,Medium,CRITICAL,12.941760198876084,77.69574561647451,"Outer Ring Road, Kadubisanahalli, Bengaluru, Karnataka. Pin-560103 (India)",PARKING IN A MAIN ROAD,75.4,51.3,0.0,Wednesday,9
8a6189209627fff,0.856676858237535,0.27140929778173717,45.59676202733184,4,13,0.856676858237535,Friday,High,CRITICAL,12.939621250951904,77.69570891933374,"Kadubeesanahalli Underpass, Kadubisanahalli Junction, Kadubisanahalli, Bengaluru, Karnataka. Pin-560103 (India)",PARKING IN A MAIN ROAD,11988.57,95.0,0.0,Thursday,8
8a618920962ffff,0.9109273402255859,0.27663538682497135,46.474744986595184,3,8,0.9109273402255859,Thursday,High,CRITICAL,12.939626035895545,77.69450414340173,"Yemalur Road, LGCL United Towers, Kadubisanahalli, Bengaluru, Karnataka. Pin-560103 (India)",NO PARKING,277.5,53.2,0.0,Thursday,8
8a6189209637fff,0.8270441656757348,0.2447859718009139,41.124043262553535,6,13,0.8270441656757348,Sunday,Medium,CRITICAL,12.940688334675349,77.69632966408687,"Kadubeesanahalli Underpass, Kadubisanahalli, Bengaluru, Karnataka. Pin-560103 (India)",NO PARKING,118.7,32.8,0.0,Wednesday,8
8a6189209677fff,0.7252283173260199,0.2592727008130468,43.55781373659187,4,6,0.7252283173260199,Friday,High,CRITICAL,12.93963081524618,77.6932993836562,"Yemalur Road, NCC Nagarjuna Green Woods, Kadubisanahalli, Bengaluru, Karnataka. Pin-560103 (India)",NO PARKING,50.6,49.8,0.0,Friday,6
8a6189209707fff,0.8280291323950443,0.23554890780230425,39.572216510787115,0,8,0.8280291323950443,Monday,Medium,CRITICAL,12.938544576095946,77.69749775856802,"Panathur Main Road, Darshan Layout, Kadubisanahalli, Bengaluru, Karnataka. Pin-560103 (India)",WRONG PARKING,879.5,44.5,0.0,Friday,13
8a618920970ffff,0.8136976045732391,0.2655951669285786,44.619988044001204,1,8,0.8136976045732391,Tuesday,High,CRITICAL,12.938549376552915,77.69629296278298,"Panathur Main Road, Darshan Layout, Kadubisanahalli, Bengaluru, Karnataka. Pin-560103 (India)",PARKING IN A MAIN ROAD,752.6,23.2,0.0,Saturday,4
8a6189209717fff,0.3389305271636914,0.2048246422619074,34.410539900000444,6,10,0.3389305271636914,Sunday,Low,CRITICAL,12.93961166428465,77.6981185197541,"2nd Main Road, Kaverappa Layout, Kaadubeesanahalli, Panathur, Bengaluru East City Corporation, Bengaluru, Bangalore East, Bengaluru Urban, Karnataka, 560103, India",WRONG PARKING,4.0,54.0,0.0,Tuesday,5
8a618920971ffff,0.6744533459363614,0.24834096576207373,41.72128224802839,3,9,0.6744533459363614,Thursday,Medium,CRITICAL,12.939616460415005,77.69691371145143,"1st Main Road, Reddy Layout, Kadubisanahalli, Bengaluru, Karnataka. Pin-560103 (India)",NO PARKING,21.700000000000003,22.7,0.0,Thursday,9
8a618920972ffff,0.3540779049613399,0.21967700697827336,36.90573717234992,6,11,0.3540779049613399,Sunday,Low,CRITICAL,12.937477492095914,77.69687700598442,"3rd Main Road, Kethana Eternal Blossom, Kaverappa Layout, Kadubisanahalli, Bengaluru, Karnataka. Pin-560103 (India)",PARKING IN A MAIN ROAD,5.2,42.0,0.0,Thursday,10
8a6189209747fff,0.8039277904197771,0.2559097935078168,42.99284530931322,2,10,0.8039277904197771,Wednesday,High,CRITICAL,12.93748709607146,77.69446745563525,"Kadubeesanahalli Underpass, LGCL United Towers, Kadubisanahalli, Bengaluru, Karnataka. Pin-560103 (India)",PARKING IN A MAIN ROAD,36.400000000000006,51.6,0.0,Wednesday,10
8a6189209757fff,0.7646867137865992,0.24290032697254166,40.807254931387,5,10,0.7646867137865992,Saturday,Medium,CRITICAL,12.938554171416891,77.6950881831832,"Kadubeesanahalli Underpass, Durga Coral Apartment, Kaverappa Layout, Kadubisanahalli, Bengaluru, Karnataka. Pin-560103 (India)",NO PARKING,77.85,50.2,0.0,Wednesday,3
8a618920975ffff,0.668827966850789,0.2516498517135288,42.27717508787284,1,6,0.668827966850789,Tuesday,High,CRITICAL,12.93855896068812,77.69388341976938,"Kadubeesanahalli Underpass, LGCL United Towers, Kadubisanahalli, Bengaluru, Karnataka. Pin-560103 (India)",WRONG PARKING,52.2,49.1,0.0,Tuesday,6
8a618920978ffff,0.8205696966030428,0.25076817185394545,42.12905287146284,2,9,0.8205696966030428,Wednesday,Medium,CRITICAL,12.941755422586208,77.69695041744271,"Outer Ring Road, SLS Serenity Apartment, Reddy Layout, Kadubisanahalli, Bengaluru, Karnataka. Pin-560103 (India)",PARKING IN A MAIN ROAD,490.2,52.3,0.0,Wednesday,5
8a618920a207fff,0.868171927764134,0.232571563186501,39.072022615332166,1,6,0.868171927764134,Tuesday,Medium,CRITICAL,12.963069801662392,77.71659793883055,"ITPL Main Road, MS Ramaiah Silicon Field Apartment, AECS Layout, Kundalhalli, Bengaluru, Karnataka. Pin-560037 (India)",WRONG PARKING,245.9,51.9,0.0,Sunday,10
8a618920a217fff,0.8708645627975898,0.24486443536415717,41.137225141178405,6,9,0.8708645627975898,Sunday,Medium,HIGH,12.964137003147536,77.71721894794607,"ITPL Main Road, Pebble Creek, AECS Layout, Kundalhalli, Bengaluru, Karnataka. Pin-560037 (India)",WRONG PARKING,274.2,55.4,0.0,Sunday,9
8a618920a21ffff,0.35600148940294846,0.24115985896153375,40.51485630553767,0,11,0.35600148940294846,Monday,Medium,HIGH,12.964141722312023,77.71601378704423,"60 Feet Main Road, Block B, AECS Layout, Kundalhalli, Bengaluru, Karnataka. Pin-560037 (India)",WRONG PARKING,33.5,42.0,0.0,Thursday,3
8a618920a237fff,0.8796958572365542,0.2841087577448865,47.730271301140924,1,3,0.8796958572365542,Tuesday,High,CRITICAL,12.9630650725786,77.71780310339237,"ITPL Main Road, Pebble Creek, AECS Layout, Kundalhalli, Bengaluru, Karnataka. Pin-560037 (India)",WRONG PARKING,795.95,53.6,0.0,Wednesday,5
8a618920a2a7fff,0.9123837428455441,0.289978855219758,48.71644767691935,5,8,0.9123837428455441,Saturday,High,HIGH,12.96520420879321,77.71783996566467,"ITPL Main Road, Brigade Tech Gardens, Brookefield, Bengaluru, Karnataka. Pin-560037 (India)",WRONG PARKING,1965.4,45.6,0.0,Tuesday,10
8a618920a2affff,0.7530311071098107,0.2264857877939265,38.04961234937965,3,5,0.7530311071098107,Thursday,Medium,HIGH,12.965208923643992,77.7166347922475,"60 Feet Main Road, Block B, AECS Layout, Kundalhalli, Bengaluru, Karnataka. Pin-560037 (India)",WRONG PARKING,67.5,41.5,0.0,Thursday,3
8a618920a2b7fff,0.8550809620369224,0.2558519661556004,42.983130314140865,0,8,0.8550809620369224,Monday,High,HIGH,12.96627141859835,77.71846099198636,"ITPL Main Road, Vijetha Lapis Lazati, Brookefield, Bengaluru, Karnataka. Pin-560037 (India)",WRONG PARKING,340.9,41.5,0.0,Monday,8
8a618920a38ffff,0.9722116987861533,0.3019443297281814,50.72664739433448,0,10,0.9722116987861533,Monday,High,CRITICAL,12.964132278377456,77.71842412502299,"ITPL Main Road, Brigade Tech Gardens, Brookefield, Bengaluru, Karnataka. Pin-560037 (India)",WRONG PARKING,1753.55,54.5,0.0,Wednesday,10
8a618920a39ffff,0.7938644498679377,0.22374141651398802,37.58855797434999,0,8,0.7938644498679377,Monday,Medium,CRITICAL,12.965199488336388,77.71904515525664,"ITPL Main Road, Brigade Tech Gardens, Brookefield, Bengaluru, Karnataka. Pin-560037 (India)",WRONG PARKING,288.6,49.7,0.0,Wednesday,10
8a618920a76ffff,0.35804398101872453,0.21916260010706662,36.81931681798719,6,11,0.35804398101872453,Sunday,Low,CRITICAL,12.96626670245432,77.71966619409334,"1st Main Road, Vijetha Lapis Lazati, Brookefield, Bengaluru, Karnataka. Pin-560037 (India)",WRONG PARKING,5.2,54.0,0.0,Monday,8
8a618920b01ffff,0.9378202762411829,0.2557567300329581,42.96713064553697,2,2,0.9378202762411829,Wednesday,High,HIGH,12.956704518327774,77.70323193147212,"HAL Airport Road, SJR Spencer, Ashwath Nagar, Marathahalli, Bengaluru, Karnataka. Pin-560037 (India)",NO PARKING,801.1,47.3,0.0,Monday,3
8a618920b047fff,0.3116145145261936,0.16569743865780137,27.83716969451063,6,11,0.3116145145261936,Sunday,Low,HIGH,12.954574960150858,77.70078532373734,"2nd Cross Road, MSR Tech Zone, Marathahalli, Bengaluru, Karnataka. Pin-560037 (India)",WRONG PARKING,15.0,75.0,0.0,Tuesday,1
8a618920b057fff,0.35565316364060845,0.23906498301389328,40.162917146334074,6,11,0.35565316364060845,Sunday,Medium,HIGH,12.95564208943436,77.7014061513777,"Marathahalli Underpass, MSR Tech Zone, Marathahalli, Bengaluru, Karnataka. Pin-560037 (India)",PARKING IN A MAIN ROAD,47.2,60.0,0.0,Tuesday,3
8a618920b06ffff,0.7610545410900165,0.23666252577045085,39.75930432943574,5,9,0.7610545410900165,Saturday,Medium,HIGH,12.953507835041894,77.70016450470024,"Outer Ring Road, Aishwarya Opulence, Marathahalli Village, Marathahalli, Bengaluru, Karnataka. Pin-560037 (India)",NO PARKING,104.3,35.2,0.0,Saturday,0
8a618920b0c7fff,0.8118480897869446,0.23352343210221532,39.23193659317217,0,5,0.8118480897869446,Monday,Medium,HIGH,12.957781055162446,77.701442892283,"Marathahalli Underpass, Ashwath Nagar, Marathahalli, Bengaluru, Karnataka. Pin-560037 (India)",NO PARKING,1047.6,39.0,0.0,Wednesday,8
8a618920b0d7fff,0.330098519564044,0.1955652462676966,32.85496137297303,6,11,0.330098519564044,Sunday,Low,HIGH,12.958848192642122,77.70206373321523,"6th Cross Road, Ashwath Nagar, Marathahalli, Bengaluru, Karnataka. Pin-560037 (India)",NO PARKING,39.0,54.0,0.0,Sunday,13
8a618920b0e7fff,0.9509822247906828,0.2580183491908701,43.34708266406617,3,1,0.9509822247906828,Thursday,High,HIGH,12.956709222891252,77.70202698762134,"HAL Airport Road, Ashwath Nagar, Marathahalli, Bengaluru, Karnataka. Pin-560037 (India)",NO PARKING,1135.0,53.0,0.0,Thursday,1
8a618920b0effff,0.9434314363867977,0.24870028496753568,41.781647874545996,5,4,0.9434314363867977,Saturday,Medium,HIGH,12.956713921854483,77.70082205995416,"HAL Airport Road, Marathahalli, Bengaluru, Karnataka. Pin-560037 (India)",NO PARKING,1626.1,53.0,0.0,Saturday,3
8a618920b0f7fff,0.3573068505920122,0.24944906040235407,41.90744214759548,0,11,0.3573068505920122,Monday,Medium,HIGH,12.95777636052048,77.70264783246826,"2nd Cross Road, Ashwath Nagar, Marathahalli, Bengaluru, Karnataka. Pin-560037 (India)",NO PARKING,5.0,45.0,0.0,Wednesday,6
8a618920ba07fff,0.963920147965346,0.23883941471174816,40.12502167157369,0,8,0.963920147965346,Monday,Medium,CRITICAL,12.94816278826431,77.69947024215966,"Outer Ring Road, Sumadhura Platinum Square, Kadubisanahalli, Bengaluru, Karnataka. Pin-560037 (India)",NO PARKING,371.4,49.9,0.0,Monday,8
8a618920ba0ffff,0.358123305915202,0.25424744351455175,42.71357051044469,6,11,0.358123305915202,Sunday,High,CRITICAL,12.948167533007004,77.69826538226842,(unnamed segment),PARKING IN A MAIN ROAD,10.0,60.0,0.0,Sunday,13
8a618920ba17fff,0.8358334683190616,0.255573808833883,42.93639988409234,0,8,0.8358334683190616,Monday,High,CRITICAL,12.949229901132645,77.7000910432173,"Outer Ring Road, Sri Manjunatha Layout, Munnekolala, Bengaluru, Karnataka. Pin-560037 (India)",NO PARKING,582.4,50.5,0.0,Monday,8
8a618920ba1ffff,0.8063625220903273,0.2579443250436899,43.334646607339906,5,3,0.8063625220903273,Saturday,High,CRITICAL,12.949234641551405,77.69888617080805,"Outer Ring Road, Soulspace Paradigm, Marathahalli Village, Marathahalli, Bengaluru, Karnataka. Pin-560037 (India)",PARKING IN A MAIN ROAD,168.7,59.5,0.0,Thursday,1
8a618920ba87fff,0.9243595872695725,0.2780105372906016,46.70577026482107,5,3,0.9243595872695725,Saturday,High,CRITICAL,12.9513688711777,77.70012777369645,"Outer Ring Road, Sharadamma Layout, Munnekolala, Bengaluru, Karnataka. Pin-560037 (India)",PARKING IN A MAIN ROAD,3100.35,67.0,0.0,Saturday,14
8a618920ba8ffff,0.7563778113969618,0.2551261262875353,42.861189216305924,5,11,0.7563778113969618,Saturday,High,CRITICAL,12.951373597351878,77.69892289243563,"Outer Ring Road, Eldorado Apartment, Marathahalli Village, Marathahalli, Bengaluru, Karnataka. Pin-560037 (India)",WRONG PARKING,30.1,64.0,0.0,Saturday,11
8a618920ba97fff,0.7890887077254557,0.2785748835997338,46.800580444755276,1,6,0.7890887077254557,Tuesday,High,CRITICAL,12.95243599225741,77.70074858804526,"1st Cross Road, Salarpuria Sattva Supreme, Marathahalli Village, Marathahalli, Bengaluru, Karnataka. Pin-560037 (India)",PARKING IN A MAIN ROAD,622.6,54.4,0.0,Thursday,2
8a618920ba9ffff,0.9496983088423504,0.26664075154387357,44.795646259370756,5,14,0.9496983088423504,Saturday,High,CRITICAL,12.952440714108535,77.69954369426635,"Outer Ring Road, Salarpuria Sattva Supreme, Marathahalli Village, Marathahalli, Bengaluru, Karnataka. Pin-560037 (India)",PARKING IN A MAIN ROAD,669.8,59.9,0.0,Tuesday,4
8a618920baaffff,0.9102008370072593,0.2849028192490605,47.86367363384217,3,2,0.9102008370072593,Thursday,High,CRITICAL,12.95030175427535,77.69950696795073,"Outer Ring Road, Soulspace Paradigm, Marathahalli Village, Marathahalli, Bengaluru, Karnataka. Pin-560037 (India)",PARKING IN A MAIN ROAD,4412.7,59.2,0.0,Thursday,3
8a6189254007fff,0.330098519564044,0.19952498308341493,33.52019715801371,6,11,0.330098519564044,Sunday,Low,HIGH,12.92578811757826,77.67800356819559,"Shivanasamudra Ward, Bengaluru East City Corporation, Bengaluru, Bangalore East, Bengaluru Urban, Karnataka, 560103, India",WRONG PARKING,4.0,54.0,0.0,Tuesday,4
8a6189254017fff,0.8067530708886292,0.2402529891513664,40.362502177429555,2,6,0.8067530708886292,Wednesday,Medium,CRITICAL,12.926855112088589,77.67862410095935,"Outer Ring Road, Bellandur, Bengaluru, Karnataka. Pin-560103 (India)",NO PARKING,879.0,49.0,0.0,Tuesday,2
8a618925401ffff,0.9428178985452423,0.24278508370118182,40.787894061798546,3,2,0.9428178985452423,Thursday,Medium,HIGH,12.926859904301036,77.67741960478689,"Outer Ring Road, Bellandur, Bengaluru, Karnataka. Pin-560103 (India)",WRONG PARKING,209.1,53.0,0.0,Thursday,2
8a61892540affff,0.7848081843381457,0.2514032420672108,42.235744667291414,2,5,0.7848081843381457,Wednesday,High,HIGH,12.927926898680203,77.67804013363241,"Mahatma Gandhi 2nd Main Road, Bellandur, Bengaluru, Karnataka. Pin-560103 (India)",NO PARKING,58.7,55.8,0.0,Wednesday,5
8a6189254187fff,0.9229283116209435,0.25014642634226664,42.0245996255008,5,5,0.9229283116209435,Saturday,Medium,CRITICAL,12.926845510906244,77.68103314188804,"RMZ Ecospace Internal Road, RMZ Ecospace Business Park, Bellandur, Bengaluru, Karnataka. Pin-560103 (India)",WRONG PARKING,185.2,55.0,0.0,Saturday,5
8a618925418ffff,0.8217315245146267,0.2751649678272588,46.227714594979474,3,2,0.8217315245146267,Thursday,High,HIGH,12.926850314290396,77.67982861332665,"Outer Ring Road, Citilights Liberty Apartment, Kariyammana Agrahara, Bengaluru, Karnataka. Pin-560103 (India)",WRONG PARKING,1154.9,53.8,0.0,Wednesday,2
8a618925419ffff,0.955973327857147,0.27598563082237026,46.36558597815821,1,8,0.955973327857147,Tuesday,High,HIGH,12.92791731734192,77.68044916721367,"Outer Ring Road, Citilights Liberty Apartment, Kariyammana Agrahara, Bengaluru, Karnataka. Pin-560103 (India)",WRONG PARKING,1711.05,37.7,0.0,Saturday,4
8a618925450ffff,0.31838180014947126,0.18530760573594898,31.131677763639427,6,11,0.31838180014947126,Sunday,Low,HIGH,12.931113565669149,77.68351545913305,"Devarabisanahalli Road, KK Gardens, Kariyammana Agrahara, Bengaluru, Karnataka. Pin-560103 (India)",PARKING IN A MAIN ROAD,17.2,38.2,0.0,Tuesday,3
8a6189254517fff,0.8168514586368651,0.16949369705424114,28.47494110511251,5,8,0.8168514586368651,Saturday,Low,CRITICAL,12.932175802562483,77.68534066730555,"Devarabisanahalli Road, Shilpitha Tech Park, Kariyammana Agrahara, Bengaluru, Karnataka. Pin-560103 (India)",NO PARKING,58.7,46.0,0.0,Saturday,8
8a618925451ffff,0.32322304686551184,0.18438197216112134,30.976171323068385,6,11,0.32322304686551184,Sunday,Low,HIGH,12.932180589862488,77.68413605995089,"Devarabisanahalli Road, Kariyammana Agrahara, Bengaluru, Karnataka. Pin-560103 (India)",NO PARKING,76.1,45.0,0.0,Tuesday,3
8a618925452ffff,0.31838180014947126,0.1826047333560965,30.677595203824215,6,11,0.31838180014947126,Sunday,Low,HIGH,12.930041749708971,77.68409944923275,"Outer Ring Road, Saffron Square, Kariyammana Agrahara, Bengaluru, Karnataka. Pin-560103 (India)",PARKING NEAR ROAD CROSSING,141.98000000000002,44.5,0.0,Tuesday,8
8a6189254537fff,0.8609132893710537,0.2540576259650141,42.681681162122366,2,8,0.8609132893710537,Wednesday,High,HIGH,12.931103976814482,77.68592466499416,"Outer Ring Road, Shilpitha Tech Park, Kariyammana Agrahara, Bengaluru, Karnataka. Pin-560103 (India)",NO PARKING,1291.54,49.4,0.0,Tuesday,8
8a6189254c8ffff,0.3549524796538202,0.24863216329810317,41.77020343408133,0,11,0.3549524796538202,Monday,Medium,HIGH,12.928965112218547,77.68588804126546,"1st Cross Road, Vajram Esteva, Devara Beesana Halli, Bengaluru, Karnataka. Pin-560103 (India)",WRONG PARKING,2.6,36.0,0.0,Thursday,8
8a6189254c97fff,0.3158412415528972,0.1892547284057022,31.79479437215797,6,11,0.3158412415528972,Sunday,Low,CRITICAL,12.930027328280705,77.68771329332522,"I Life Road, Vajram Onyx, Devara Beesana Halli, Bengaluru, Karnataka. Pin-560103 (India)",NO PARKING,7.6,48.0,0.0,Wednesday,5
8a6189254c9ffff,0.8131632977973478,0.24938633095733348,41.896903600832026,3,3,0.8131632977973478,Thursday,Medium,CRITICAL,12.930032141011663,77.68650866243713,"Outer Ring Road, Vajram Esteva, Devara Beesana Halli, Bengaluru, Karnataka. Pin-560103 (India)",NO PARKING,45.4,54.8,0.0,Thursday,3
8a6189254cd7fff,0.8036721701071029,0.23912869812009926,40.173621284176676,4,8,0.8036721701071029,Friday,Medium,HIGH,12.928969923694345,77.68468343908717,"Bellandur Doddakannelli Road, Saffron Square, Kariyammana Agrahara, Bengaluru, Karnataka. Pin-560103 (India)",NO PARKING,138.6,48.4,0.0,Wednesday,4
8a618925b21ffff,0.19837485423496623,0.11547444345421987,19.399706500308938,6,11,0.19837485423496623,Sunday,Low,HIGH,12.95716796116519,77.57680132803186,"Kalasipalyam Main Road, Basappa Circle, VV Puram, Bengaluru, Karnataka. Pin-560004 (India)",WRONG PARKING,28.3,26.0,1.0,Tuesday,3
8a618925b287fff,0.955502797033513,0.2675451409933495,44.94758368688271,2,7,0.955502797033513,Wednesday,High,CRITICAL,12.959301336693969,77.57804041970552,"Kalasipalyam Main Road, Kalasipalyam, Bengaluru, Karnataka. Pin-560002 (India)",WRONG PARKING,1391.25,29.7,1.0,Tuesday,5
8a618925b28ffff,0.9757164620336038,0.28757909386437513,48.31328776921502,0,14,0.9757164620336038,Monday,High,CRITICAL,12.959305445685848,77.5768371540682,"Tippu Sultan Palace Road, Kalasipalyam, Bengaluru, Karnataka. Pin-560002 (India)",WRONG PARKING,2450.3,63.5,1.0,Friday,11
8a618925b297fff,0.30152273364552307,0.17465060572516813,29.341301761828248,6,11,0.30152273364552307,Sunday,Low,HIGH,12.960368030785173,77.57865997845525,"Arumugam Mudaliar Road, Mothinagar, Kalasipalyam, Bengaluru, Karnataka. Pin-560002 (India)",WRONG PARKING,11.25,63.7,1.0,Saturday,12
8a618925b29ffff,0.9096186650596828,0.25618665047887446,43.03935728045091,2,8,0.9096186650596828,Wednesday,High,CRITICAL,12.960372135406953,77.57745670027222,"Kalasipalyam Main Road, Kalasipalyam, Bengaluru, Karnataka. Pin-560002 (India)",WRONG PARKING,884.75,29.6,1.0,Wednesday,8
8a618925b2affff,0.9589837469116875,0.24264011585261583,40.76353946323946,6,10,0.9589837469116875,Sunday,Medium,HIGH,12.958234646820287,77.5774208695644,"Kalasipalyam Main Road, Kalasipalyam, Bengaluru, Karnataka. Pin-560002 (India)",NO PARKING,414.2,26.6,1.0,Sunday,10
8a618925b2b7fff,0.19570301110244587,0.11070433542530976,18.59832835145204,6,11,0.19570301110244587,Sunday,Low,HIGH,12.959297222123707,77.57924370160245,"AM Road, KS Contey Layout, Kalasipalyam, Bengaluru, Karnataka. Pin-560002 (India)",WRONG PARKING,45.4,47.0,1.0,Saturday,7
8a618925b2d7fff,0.9218641959210906,0.26919757188788634,45.225192077164905,5,9,0.9218641959210906,Saturday,High,CRITICAL,12.959309549099553,77.57563390469123,"Tippu Sultan Palace Road, Bangalore Medical College & Research Institute, Bengaluru, Karnataka. Pin-560002 (India)",WRONG PARKING,1433.05,42.8,1.0,Saturday,13
8a618925b607fff,0.9176795555833718,0.24669796903792812,41.445258798371924,2,8,0.9176795555833718,Wednesday,Medium,CRITICAL,12.963564041258348,77.58172203843483,"Sri Narasimha Raj Wadiyar Road, Potters Colony, Kalasipalyam, Bengaluru, Karnataka. Pin-560002 (India)",WRONG PARKING,1071.75,30.1,1.0,Wednesday,9
8a618925b60ffff,0.9072146979541508,0.25029852047160456,42.050151439229566,3,1,0.9072146979541508,Thursday,Medium,CRITICAL,12.963568138352858,77.58051870635639,"Narasimha Raj Wadiyar Road, Potters Colony, Kalasipalyam, Bengaluru, Karnataka. Pin-560002 (India)",WRONG PARKING,1331.95,32.0,1.0,Tuesday,2
